$GPVTG,,T,,M,0.255,N,0.473,K,A*21

$GPGGA,141125.00,5206.48815,N,00217.79605,W,1,06,1.40,46.9,M,48.3,M,,*73

$GPGSA,A,3,03,19,04,06,11,09,,,,,,,2.57,1.40,2.16*02

$GPGSV,3,1,12,01,09,140,13,03,34,087,18,04,68,083,17,06,63,289,23*73

$GPGSV,3,2,12,07,04,167,,09,63,200,20,11,27,307,18,17,18,212,29*79

$GPGSV,3,3,12,19,31,234,25,21,04,272,,25,00,339,,28,00,019,*7E

$GPGLL,5206.48815,N,00217.79605,W,141125.00,A,A*71

$GPRMC,141126.00,A,5206.48823,N,00217.79616,W,0.113,,070725,,,A*68

$GPVTG,,T,,M,0.113,N,0.209,K,A*2B

$GPGGA,141126.00,5206.48823,N,00217.79616,W,1,06,1.40,46.9,M,48.3,M,,*77

$GPGSA,A,3,03,19,04,06,11,09,,,,,,,2.57,1.40,2.16*02

$GPGSV,3,1,12,01,09,140,13,03,34,087,18,04,68,083,18,06,63,289,23*7C

$GPGSV,3,2,12,07,04,167,,09,63,200,20,11,27,307,16,17,18,212,29*77

$GPGSV,3,3,12,19,31,234,24,21,04,272,,25,00,339,,28,00,019,*7F

$GPGLL,5206.48823,N,00217.79616,W,141126.00,A,A*75

$GPRMC,141127.00,A,5206.48847,N,00217.79650,W,0.311,,070725,,,A*69

$GPVTG,,T,,M,0.311,N,0.576,K,A*24

$GPGGA,141127.00,5206.48847,N,00217.79650,W,1,06,1.40,46.9,M,48.3,M,,*76

$GPGSA,A,3,03,19,04,06,11,09,,,,,,,2.57,1.40,2.16*02

$GPGSV,3,1,12,01,09,140,13,03,34,087,17,04,68,083,21,06,63,289,24*7E

$GPGSV,3,2,12,07,04,167,,09,63,200,20,11,27,307,17,17,18,212,29*76

$GPGSV,3,3,12,19,31,234,25,21,04,272,,25,00,339,,28,00,019,*7E

$GPGLL,5206.48847,N,00217.79650,W,141127.00,A,A*74

$GPRMC,141128.00,A,5206.48819,N,00217.79626,W,0.538,,070725,,,A*61

$GPVTG,,T,,M,0.538,N,0.996,K,A*2B

$GPGGA,141128.00,5206.48819,N,00217.79626,W,1,06,1.40,46.9,M,48.3,M,,*73

$GPGSA,A,3,03,19,04,06,11,09,,,,,,,2.57,1.40,2.16*02

$GPGSV,3,1,12,01,09,140,13,03,34,087,17,04,68,083,21,06,63,288,24*7F

$GPGSV,3,2,12,07,04,167,,09,63,200,20,11,27,307,18,17,18,212,28*78

$GPGSV,3,3,12,19,31,234,24,21,04,272,,25,00,339,,28,00,019,*7F

$GPGLL,5206.48819,N,00217.79626,W,141128.00,A,A*71

$GPRMC,141129.00,A,5206.48835,N,00217.79621,W,0.469,,070725,,,A*6C

$GPVTG,,T,,M,0.469,N,0.869,K,A*2F

$GPGGA,141129.00,5206.48835,N,00217.79621,W,1,06,1.40,46.8,M,48.3,M,,*7A

$GPGSA,A,3,03,19,04,06,11,09,,,,,,,2.57,1.40,2.16*02

$GPGSV,3,1,12,01,09,140,13,03,34,087,16,04,68,083,22,06,63,288,24*7D

$GPGSV,3,2,12,07,04,167,,09,63,200,20,11,27,307,19,17,18,212,28*79

$GPGSV,3,3,12,19,31,234,24,21,04,272,,25,00,339,,28,00,019,*7F

$GPGLL,5206.48835,N,00217.79621,W,141129.00,A,A*79

$GPRMC,141130.00,A,5206.48814,N,00217.79630,W,0.164,,070725,,,A*6F

$GPVTG,,T,,M,0.164,N,0.304,K,A*27

$GPGGA,141130.00,5206.48814,N,00217.79630,W,1,06,1.40,46.7,M,48.3,M,,*7E

$GPGSA,A,3,03,19,04,06,11,09,,,,,,,2.57,1.40,2.16*02

$GPGSV,3,1,12,01,09,140,13,03,34,087,15,04,68,083,22,06,63,288,24*7E

$GPGSV,3,2,12,07,04,167,,09,63,200,21,11,27,307,20,17,18,212,27*7D

$GPGSV,3,3,12,19,31,234,25,21,04,272,,25,00,339,,28,00,019,*7E

$GPGLL,5206.48814,N,00217.79630,W,141130.00,A,A*72

$GPRMC,141131.00,A,5206.48816,N,00217.79613,W,0.282,,070725,,,A*66

$GPVTG,,T,,M,0.282,N,0.522,K,A*2E

$GPGGA,141131.00,5206.48816,N,00217.79613,W,1,06,1.40,46.7,M,48.3,M,,*7C

$GPGSA,A,3,03,19,04,06,11,09,,,,,,,2.57,1.40,2.16*02

$GPGSV,3,1,12,01,09,140,13,03,34,087,16,04,68,083,25,06,63,288,24*7A

$GPGSV,3,2,12,07,04,167,,09,63,200,22,11,27,307,23,17,18,212,27*7D

$GPGSV,3,3,12,19,31,234,25,21,04,272,,25,00,339,,28,00,019,*7E

$GPGLL,5206.48816,N,00217.79613,W,141131.00,A,A*70

$GPRMC,141132.00,A,5206.48791,N,00217.79625,W,0.254,,070725,,,A*6B

$GPVTG,,T,,M,0.254,N,0.470,K,A*23

$GPGGA,141132.00,5206.48791,N,00217.79625,W,1,06,1.40,46.3,M,48.3,M,,*7E

$GPGSA,A,3,03,19,04,06,11,09,,,,,,,2.57,1.40,2.15*01

$GPGSV,3,1,12,01,09,140,07,03,34,087,18,04,68,083,24,06,63,288,30*75

$GPGSV,3,2,12,07,04,167,,09,63,200,30,11,27,307,30,17,18,212,28*73

$GPGSV,3,3,12,19,31,234,25,21,04,272,,25,00,339,,28,00,019,*7E

$GPGLL,5206.48791,N,00217.79625,W,141132.00,A,A*76

$GPRMC,141133.00,A,5206.48796,N,00217.79619,W,0.186,,070725,,,A*6E

$GPVTG,,T,,M,0.186,N,0.344,K,A*2F

$GPGGA,141133.00,5206.48796,N,00217.79619,W,1,06,1.40,46.5,M,48.3,M,,*71

$GPGSA,A,3,03,19,04,06,11,09,,,,,,,2.57,1.40,2.15*01

$GPGSV,3,1,12,01,09,140,07,03,34,087,18,04,68,083,30,06,63,288,29*78

$GPGSV,3,2,12,07,04,167,,09,63,200,29,11,27,307,29,17,18,212,21*7A

$GPGSV,3,3,12,19,31,234,23,21,04,272,,25,00,339,,28,00,019,*78

$GPGLL,5206.48796,N,00217.79619,W,141133.00,A,A*7F

$GPRMC,141134.00,A,5206.48830,N,00217.79588,W,1.162,,070725,,,A*6A

$GPVTG,,T,,M,1.162,N,2.153,K,A*22

$GPGGA,141134.00,5206.48830,N,00217.79588,W,1,06,1.40,46.4,M,48.3,M,,*7F

$GPGSA,A,3,03,19,04,06,11,09,,,,,,,2.57,1.40,2.15*01

$GPGSV,3,1,12,01,09,140,07,03,34,087,16,04,68,083,33,06,63,288,30*7D

$GPGSV,3,2,12,07,04,167,,09,63,200,21,11,27,307,21,17,18,212,22*79

$GPGSV,3,3,12,19,31,234,24,21,04,272,,25,00,339,,28,00,019,*7F

$GPGLL,5206.48830,N,00217.79588,W,141134.00,A,A*70

$GPRMC,141135.00,A,5206.48805,N,00217.79610,W,0.678,,070725,,,A*62

$GPVTG,,T,,M,0.678,N,1.256,K,A*2A

$GPGGA,141135.00,5206.48805,N,00217.79610,W,1,06,1.40,46.0,M,48.3,M,,*7E

$GPGSA,A,3,03,19,04,06,11,09,,,,,,,2.57,1.40,2.15*01

$GPGSV,3,1,12,01,09,140,07,03,34,087,14,04,68,083,33,06,63,288,29*77

$GPGSV,3,2,12,07,04,167,,09,63,200,29,11,27,307,30,17,17,212,25*79

$GPGSV,3,3,12,19,31,234,29,21,04,272,,25,00,339,,28,00,019,*72

$GPGLL,5206.48805,N,00217.79610,W,141135.00,A,A*75

$GPRMC,141136.00,A,5206.48767,N,00217.79539,W,1.649,,070725,,,A*61

$GPVTG,,T,,M,1.649,N,3.055,K,A*2A

$GPGGA,141136.00,5206.48767,N,00217.79539,W,1,06,1.40,45.3,M,48.3,M,,*7E

$GPGSA,A,3,03,19,04,06,11,09,,,,,,,2.57,1.40,2.15*01

$GPGSV,3,1,12,01,09,140,07,03,34,087,14,04,68,083,33,06,63,288,30*7F

$GPGSV,3,2,12,07,04,167,,09,63,200,28,11,27,307,24,17,17,212,24*7C

$GPGSV,3,3,12,19,31,234,26,21,04,272,,25,00,339,,28,00,019,*7D

$GPGLL,5206.48767,N,00217.79539,W,141136.00,A,A*75

$GPRMC,141137.00,A,5206.48808,N,00217.79538,W,0.185,,070725,,,A*61

$GPVTG,,T,,M,0.185,N,0.343,K,A*2B

$GPGGA,141137.00,5206.48808,N,00217.79538,W,1,06,1.40,45.1,M,48.3,M,,*7A

$GPGSA,A,3,03,19,04,06,11,09,,,,,,,2.57,1.40,2.15*01

$GPGSV,3,1,12,01,09,140,,03,34,087,14,04,68,083,35,06,63,288,31*7F

$GPGSV,3,2,12,07,04,167,,09,63,200,25,11,27,307,26,17,17,212,22*75

$GPGSV,3,3,12,19,31,234,28,21,04,272,,25,00,339,,28,00,019,*73

$GPGLL,5206.48808,N,00217.79538,W,141137.00,A,A*73

$GPRMC,141138.00,A,5206.48814,N,00217.79598,W,0.430,,070725,,,A*62

$GPVTG,,T,,M,0.430,N,0.796,K,A*2C

$GPGGA,141138.00,5206.48814,N,00217.79598,W,1,06,1.40,45.6,M,48.3,M,,*75

$GPGSA,A,3,03,19,04,06,11,09,,,,,,,2.57,1.40,2.15*01

$GPGSV,3,1,12,01,09,140,,03,34,087,16,04,68,083,29,06,63,288,31*70

$GPGSV,3,2,12,07,04,167,,09,63,200,21,11,27,307,30,17,17,212,20*74

$GPGSV,3,3,12,19,31,234,27,21,04,272,,25,00,339,,28,00,019,*7C

$GPGLL,5206.48814,N,00217.79598,W,141138.00,A,A*7B

$GPRMC,141139.00,A,5206.48821,N,00217.79607,W,0.522,,070725,,,A*62

$GPVTG,,T,,M,0.522,N,0.967,K,A*2E

$GPGGA,141139.00,5206.48821,N,00217.79607,W,1,06,1.40,44.8,M,48.3,M,,*78

$GPGSA,A,3,03,19,04,06,11,09,,,,,,,2.57,1.40,2.15*01

$GPGSV,3,1,12,01,09,140,,03,34,087,17,04,68,083,32,06,63,288,26*7D

$GPGSV,3,2,12,07,04,167,,09,63,200,19,11,27,307,29,17,17,212,20*77

$GPGSV,3,3,12,19,31,234,26,21,04,272,,25,00,339,,28,00,019,*7D

$GPGLL,5206.48821,N,00217.79607,W,141139.00,A,A*79

$GPRMC,141140.00,A,5206.48813,N,00217.79590,W,0.892,,070725,,,A*66

$GPVTG,,T,,M,0.892,N,1.653,K,A*21

$GPGGA,141140.00,5206.48813,N,00217.79590,W,1,06,1.40,44.7,M,48.3,M,,*75

$GPGSA,A,3,03,19,04,06,11,09,,,,,,,2.57,1.40,2.15*01

$GPGSV,3,1,12,01,09,140,,03,34,087,17,04,68,083,32,06,63,288,24*7F

$GPGSV,3,2,12,07,04,167,,09,63,200,22,11,27,307,29,17,17,212,21*7E

$GPGSV,3,3,12,19,31,234,28,21,04,272,,25,00,339,,28,00,019,*73

$GPGLL,5206.48813,N,00217.79590,W,141140.00,A,A*7B

$GPRMC,141141.00,A,5206.48815,N,00217.79601,W,0.591,,070725,,,A*64

$GPVTG,,T,,M,0.591,N,1.094,K,A*22

$GPGGA,141141.00,5206.48815,N,00217.79601,W,1,06,1.40,44.8,M,48.3,M,,*76

$GPGSA,A,3,03,19,04,06,11,09,,,,,,,2.57,1.40,2.15*01

$GPGSV,3,1,12,01,09,140,,03,34,087,15,04,68,083,32,06,63,288,22*7B

$GPGSV,3,2,12,07,04,167,,09,63,200,23,11,27,307,27,17,17,212,21*71

$GPGSV,3,3,12,19,31,234,27,21,04,272,,25,00,339,,28,00,019,*7C

$GPGLL,5206.48815,N,00217.79601,W,141141.00,A,A*77

$GPRMC,141142.00,A,5206.48811,N,00217.79605,W,0.434,,070725,,,A*69

$GPVTG,,T,,M,0.434,N,0.804,K,A*2C

$GPGGA,141142.00,5206.48811,N,00217.79605,W,1,06,1.40,45.0,M,48.3,M,,*7C

$GPGSA,A,3,03,19,04,06,11,09,,,,,,,2.56,1.40,2.15*00

$GPGSV,3,1,12,01,09,140,,03,34,087,15,04,68,083,33,06,63,288,20*78

$GPGSV,3,2,12,07,04,167,,09,63,200,25,11,27,307,26,17,17,212,22*75

$GPGSV,3,3,12,19,31,234,27,21,04,272,,25,00,338,,28,00,019,*7D

$GPGLL,5206.48811,N,00217.79605,W,141142.00,A,A*74

$GPRMC,141143.00,A,5206.48806,N,00217.79596,W,0.415,,070725,,,A*64

$GPVTG,,T,,M,0.415,N,0.769,K,A*2B

$GPGGA,141143.00,5206.48806,N,00217.79596,W,1,06,1.40,44.8,M,48.3,M,,*7B

$GPGSA,A,3,03,19,04,06,11,09,,,,,,,2.56,1.40,2.15*00

$GPGSV,3,1,12,01,09,140,,03,34,087,14,04,68,083,32,06,63,288,20*78

$GPGSV,3,2,12,07,04,167,,09,63,200,24,11,27,307,24,17,17,212,22*76

$GPGSV,3,3,12,19,31,234,27,21,04,272,,25,00,338,,28,00,019,*7D

$GPGLL,5206.48806,N,00217.79596,W,141143.00,A,A*7A

$GPRMC,141144.00,A,5206.48818,N,00217.79560,W,0.518,,070725,,,A*69

$GPVTG,,T,,M,0.518,N,0.959,K,A*2A

$GPGGA,141144.00,5206.48818,N,00217.79560,W,1,06,1.40,44.4,M,48.3,M,,*76

$GPGSA,A,3,03,19,04,06,11,09,,,,,,,2.56,1.40,2.15*00

$GPGSV,3,1,12,01,09,140,,03,34,087,12,04,68,083,33,06,63,288,22*7D

$GPGSV,3,2,12,07,04,167,,09,63,200,23,11,27,307,22,17,17,212,21*74

$GPGSV,3,3,12,19,31,234,28,21,04,272,,25,00,338,,28,00,019,*72

$GPGLL,5206.48818,N,00217.79560,W,141144.00,A,A*7B

$GPRMC,141145.00,A,5206.48833,N,00217.79592,W,0.258,,070725,,,A*6F

$GPVTG,,T,,M,0.258,N,0.477,K,A*28

$GPGGA,141145.00,5206.48833,N,00217.79592,W,1,06,1.40,44.9,M,48.3,M,,*7E

$GPGSA,A,3,03,19,04,06,11,09,,,,,,,2.56,1.40,2.15*00

$GPGSV,3,1,12,01,09,140,,03,34,087,11,04,68,083,34,06,63,288,22*79

$GPGSV,3,2,12,07,04,167,,09,63,200,22,11,27,307,22,17,17,212,20*74

$GPGSV,3,3,12,19,31,234,29,21,04,272,,25,00,338,,28,00,018,*72

$GPGLL,5206.48833,N,00217.79592,W,141145.00,A,A*7E

$GPRMC,141146.00,A,5206.48866,N,00217.79621,W,0.701,,070725,,,A*6E

$GPVTG,,T,,M,0.701,N,1.298,K,A*27

$GPGGA,141146.00,5206.48866,N,00217.79621,W,1,06,1.40,45.2,M,48.3,M,,*7C

$GPGSA,A,3,03,19,04,06,11,09,,,,,,,2.56,1.40,2.15*00

$GPGSV,3,1,12,01,09,140,,03,34,087,13,04,68,083,34,06,63,288,24*7D

$GPGSV,3,2,12,07,04,167,,09,63,200,23,11,27,307,21,17,17,212,21*77

$GPGSV,3,3,12,19,31,234,31,21,04,272,,25,00,338,,28,00,018,*7B

$GPGLL,5206.48866,N,00217.79621,W,141146.00,A,A*76

$GPRMC,141147.00,A,5206.48865,N,00217.79622,W,0.447,,070725,,,A*6E

$GPVTG,,T,,M,0.447,N,0.827,K,A*29

$GPGGA,141147.00,5206.48865,N,00217.79622,W,1,06,1.40,45.2,M,48.3,M,,*7D

$GPGSA,A,3,03,19,04,06,11,09,,,,,,,2.56,1.40,2.15*00

$GPGSV,3,1,12,01,09,140,,03,34,087,12,04,68,083,35,06,63,288,24*7D

$GPGSV,3,2,12,07,04,167,,09,63,200,24,11,27,307,24,17,17,212,18*7F

$GPGSV,3,3,12,19,31,234,31,21,04,272,,25,00,338,,28,00,018,*7B

$GPGLL,5206.48865,N,00217.79622,W,141147.00,A,A*77

$GPRMC,141148.00,A,5206.48864,N,00217.79612,W,0.469,,070725,,,A*6F

$GPVTG,,T,,M,0.469,N,0.869,K,A*2F

$GPGGA,141148.00,5206.48864,N,00217.79612,W,1,06,1.40,44.7,M,48.3,M,,*74

$GPGSA,A,3,03,19,04,06,11,09,,,,,,,2.56,1.40,2.15*00

$GPGSV,3,1,12,01,09,140,,03,34,087,12,04,68,083,35,06,63,288,24*7D

$GPGSV,3,2,12,07,04,167,,09,63,200,23,11,27,307,26,17,17,212,15*77

$GPGSV,3,3,12,19,31,234,31,21,04,272,,25,00,338,,28,00,018,*7B

$GPGLL,5206.48864,N,00217.79612,W,141148.00,A,A*7A

$GPRMC,141149.00,A,5206.48865,N,00217.79618,W,0.411,,070725,,,A*6A

$GPVTG,,T,,M,0.411,N,0.761,K,A*27

$GPGGA,141149.00,5206.48865,N,00217.79618,W,1,06,1.40,45.1,M,48.3,M,,*79

$GPGSA,A,3,03,19,04,06,11,09,,,,,,,2.56,1.40,2.15*00

$GPGSV,3,1,12,01,09,140,,03,34,087,12,04,68,083,35,06,63,288,23*7A

$GPGSV,3,2,12,07,04,167,,09,63,200,24,11,27,307,26,17,17,212,16*73

$GPGSV,3,3,12,19,31,234,30,21,04,272,,25,00,338,,28,00,018,*7A

$GPGLL,5206.48865,N,00217.79618,W,141149.00,A,A*70

$GPRMC,141150.00,A,5206.48876,N,00217.79641,W,0.233,,070725,,,A*6A

$GPVTG,,T,,M,0.233,N,0.431,K,A*27

$GPGGA,141150.00,5206.48876,N,00217.79641,W,1,06,1.40,45.7,M,48.3,M,,*79

$GPGSA,A,3,03,19,04,06,11,09,,,,,,,2.56,1.40,2.15*00

$GPGSV,3,1,12,01,09,140,,03,34,087,14,04,68,083,35,06,63,288,23*7C

$GPGSV,3,2,12,07,04,167,,09,63,200,24,11,27,307,27,17,17,212,19*7D

$GPGSV,3,3,12,19,31,234,29,21,04,272,,25,00,338,,28,00,018,*72

$GPGLL,5206.48876,N,00217.79641,W,141150.00,A,A*76

$GPRMC,141151.00,A,5206.48880,N,00217.79653,W,0.261,,070725,,,A*66

$GPVTG,,T,,M,0.261,N,0.484,K,A*2E

$GPGGA,141151.00,5206.48880,N,00217.79653,W,1,06,1.40,46.0,M,48.3,M,,*76

$GPGSA,A,3,03,19,04,06,11,09,,,,,,,2.56,1.40,2.15*00

$GPGSV,3,1,12,01,09,140,,03,34,087,14,04,68,083,32,06,63,288,24*7C

$GPGSV,3,2,12,07,04,167,,09,63,200,24,11,27,307,27,17,17,212,17*73

$GPGSV,3,3,12,19,31,234,29,21,04,272,,25,00,338,,28,00,018,*72

$GPGLL,5206.48880,N,00217.79653,W,141151.00,A,A*7D

$GPRMC,141152.00,A,5206.48878,N,00217.79677,W,0.287,,070725,,,A*6C

$GPVTG,,T,,M,0.287,N,0.531,K,A*29

$GPGGA,141152.00,5206.48878,N,00217.79677,W,1,06,1.40,46.3,M,48.3,M,,*77

$GPGSA,A,3,03,19,04,06,11,09,,,,,,,2.56,1.40,2.15*00

$GPGSV,3,1,12,01,09,140,,03,34,087,14,04,68,083,36,06,63,288,23*7F

$GPGSV,3,2,12,07,04,167,,09,63,200,25,11,27,307,32,17,17,212,18*79

$GPGSV,3,3,12,19,31,234,29,21,04,272,,25,00,338,,28,00,018,*72

$GPGLL,5206.48878,N,00217.79677,W,141152.00,A,A*7F

$GPRMC,141153.00,A,5206.48858,N,00217.79727,W,1.101,,070725,,,A*67

$GPVTG,,T,,M,1.101,N,2.039,K,A*2A

$GPGGA,141153.00,5206.48858,N,00217.79727,W,1,06,1.40,47.4,M,48.3,M,,*76

$GPGSA,A,3,03,19,04,06,11,09,,,,,,,2.56,1.40,2.15*00

$GPGSV,3,1,12,01,09,140,,03,34,087,14,04,68,083,36,06,63,288,22*7E

$GPGSV,3,2,12,07,04,167,,09,63,200,26,11,27,307,27,17,17,212,20*75

$GPGSV,3,3,12,19,31,234,30,21,04,272,,25,00,338,,28,00,018,*7A

$GPGLL,5206.48858,N,00217.79727,W,141153.00,A,A*78

$GPRMC,141154.00,A,5206.48852,N,00217.79832,W,1.486,,070725,,,A*6B

$GPVTG,,T,,M,1.486,N,2.752,K,A*2A

$GPGGA,141154.00,5206.48852,N,00217.79832,W,1,06,1.40,48.7,M,48.3,M,,*7C

$GPGSA,A,3,03,19,04,06,11,09,,,,,,,2.56,1.40,2.14*01

$GPGSV,3,1,12,01,09,140,,03,34,087,14,04,68,083,35,06,63,288,30*7E

$GPGSV,3,2,12,07,04,167,,09,63,200,29,11,27,307,27,17,17,212,23*79

$GPGSV,3,3,12,19,31,234,29,21,04,272,,25,00,338,,28,00,018,*72

$GPGLL,5206.48852,N,00217.79832,W,141154.00,A,A*7E

$GPRMC,141155.00,A,5206.48841,N,00217.79895,W,1.827,,070725,,,A*62

$GPVTG,,T,,M,1.827,N,3.384,K,A*23

$GPGGA,141155.00,5206.48841,N,00217.79895,W,1,05,2.19,48.4,M,48.3,M,,*7D

$GPGSA,A,3,19,04,06,11,09,,,,,,,,4.26,2.19,3.66*08

$GPGSV,3,1,12,01,09,140,,03,34,087,09,04,68,083,31,06,63,288,31*77

$GPGSV,3,2,12,07,04,167,,09,63,200,30,11,27,307,24,17,17,212,21*70

$GPGSV,3,3,12,19,31,234,21,21,04,272,,25,00,338,,28,00,018,*7A

$GPGLL,5206.48841,N,00217.79895,W,141155.00,A,A*70

$GPRMC,141156.00,A,5206.48817,N,00217.79977,W,1.944,,070725,,,A*6B

$GPVTG,,T,,M,1.944,N,3.601,K,A*2F

$GPGGA,141156.00,5206.48817,N,00217.79977,W,1,06,1.40,48.6,M,48.3,M,,*7E

$GPGSA,A,3,03,19,04,06,11,09,,,,,,,2.56,1.40,2.14*01

$GPGSV,3,1,12,01,09,140,,03,34,087,16,04,68,083,31,06,63,288,31*79

$GPGSV,3,2,12,07,04,167,,09,63,200,22,11,27,307,22,17,17,212,19*7E

$GPGSV,3,3,12,19,31,234,22,21,04,272,,25,00,338,,28,00,018,*79

$GPGLL,5206.48817,N,00217.79977,W,141156.00,A,A*7D

$GPRMC,141157.00,A,5206.48818,N,00217.80085,W,2.265,,070725,,,A*6C

$GPVTG,,T,,M,2.265,N,4.195,K,A*29

$GPGGA,141157.00,5206.48818,N,00217.80085,W,1,06,1.40,48.8,M,48.3,M,,*7C

$GPGSA,A,3,03,19,04,06,11,09,,,,,,,2.56,1.40,2.14*01

$GPGSV,3,1,12,01,09,140,,03,34,087,20,04,68,083,32,06,63,288,30*7E

$GPGSV,3,2,12,07,04,167,,09,63,200,25,11,27,307,22,17,17,212,19*79

$GPGSV,3,3,12,19,31,234,25,21,04,272,,25,00,338,,28,00,018,*7E

$GPGLL,5206.48818,N,00217.80085,W,141157.00,A,A*71

$GPRMC,141158.00,A,5206.48810,N,00217.80201,W,2.830,266.43,070725,,,A*74

$GPVTG,266.43,T,,M,2.830,N,5.241,K,A*33

$GPGGA,141158.00,5206.48810,N,00217.80201,W,1,06,1.40,48.2,M,48.3,M,,*7F

$GPGSA,A,3,03,19,04,06,11,09,,,,,,,2.56,1.40,2.14*01

$GPGSV,3,1,12,01,09,140,,03,34,087,30,04,68,083,36,06,63,288,29*73

$GPGSV,3,2,12,07,04,167,,09,63,200,25,11,27,307,21,17,17,212,21*71

$GPGSV,3,3,12,19,31,234,27,21,04,272,,25,00,338,,28,00,018,*7C

$GPGLL,5206.48810,N,00217.80201,W,141158.00,A,A*78

$GPRMC,141159.00,A,5206.48789,N,00217.80332,W,2.780,260.51,070725,,,A*7A

$GPVTG,260.51,T,,M,2.780,N,5.148,K,A*38

$GPGGA,141159.00,5206.48789,N,00217.80332,W,1,06,1.40,48.2,M,48.3,M,,*70

$GPGSA,A,3,03,19,04,06,11,09,,,,,,,2.56,1.40,2.14*01

$GPGSV,3,1,12,01,09,140,,03,34,087,30,04,68,083,33,06,63,288,28*77

$GPGSV,3,2,12,07,04,167,,09,63,200,30,11,27,307,30,17,17,212,22*76

$GPGSV,3,3,12,19,31,234,28,21,04,272,,25,00,338,,28,00,018,*73

$GPGLL,5206.48789,N,00217.80332,W,141159.00,A,A*77

$GPRMC,141200.00,A,5206.48783,N,00217.80447,W,2.610,261.23,070725,,,A*76

$GPVTG,261.23,T,,M,2.610,N,4.835,K,A*36

$GPGGA,141200.00,5206.48783,N,00217.80447,W,1,06,1.40,47.7,M,48.3,M,,*7A

$GPGSA,A,3,03,19,04,06,11,09,,,,,,,2.56,1.40,2.14*01

$GPGSV,3,1,12,01,08,140,,03,34,087,23,04,68,083,32,06,63,288,29*74

$GPGSV,3,2,12,07,04,167,,09,63,200,29,11,27,307,25,17,17,212,20*78

$GPGSV,3,3,12,19,31,234,27,21,04,272,,25,00,338,,28,00,018,*7C

$GPGLL,5206.48783,N,00217.80447,W,141200.00,A,A*77

$GPRMC,141201.00,A,5206.48748,N,00217.80534,W,2.570,250.90,070725,,,A*7A

$GPVTG,250.90,T,,M,2.570,N,4.759,K,A*3C

$GPGGA,141201.00,5206.48748,N,00217.80534,W,1,06,1.40,47.2,M,48.3,M,,*7C

$GPGSA,A,3,03,19,04,06,11,09,,,,,,,2.56,1.40,2.14*01

$GPGSV,3,1,12,01,08,140,,03,34,087,31,04,68,083,32,06,63,288,30*7F

$GPGSV,3,2,12,07,04,167,,09,63,200,29,11,27,307,24,17,17,212,23*7A

$GPGSV,3,3,12,19,31,234,25,21,04,272,,25,00,338,,28,00,018,*7E

$GPGLL,5206.48748,N,00217.80534,W,141201.00,A,A*74

$GPRMC,141202.00,A,5206.48730,N,00217.80596,W,1.511,236.70,070725,,,A*74

$GPVTG,236.70,T,,M,1.511,N,2.798,K,A*3D

$GPGGA,141202.00,5206.48730,N,00217.80596,W,1,06,1.40,47.3,M,48.3,M,,*79

$GPGSA,A,3,03,19,04,06,11,09,,,,,,,2.56,1.40,2.14*01

$GPGSV,3,1,12,01,08,140,,03,34,087,23,04,68,083,29,06,63,288,32*74

$GPGSV,3,2,12,07,04,167,,09,63,200,30,11,27,307,29,17,17,212,22*7E

$GPGSV,3,3,12,19,31,234,32,21,04,272,,25,00,338,,28,00,018,*78

$GPGLL,5206.48730,N,00217.80596,W,141202.00,A,A*70

$GPRMC,141203.00,A,5206.48698,N,00217.80616,W,1.072,,070725,,,A*63

$GPVTG,,T,,M,1.072,N,1.985,K,A*22

$GPGGA,141203.00,5206.48698,N,00217.80616,W,1,06,1.40,46.8,M,48.3,M,,*7A

$GPGSA,A,3,03,19,04,06,11,09,,,,,,,2.56,1.40,2.14*01

$GPGSV,3,1,12,01,08,140,,03,34,087,23,04,68,082,18,06,63,288,33*76

$GPGSV,3,2,12,07,04,167,,09,63,200,31,11,27,307,27,17,17,212,23*70

$GPGSV,3,3,12,19,31,234,30,21,04,272,,25,00,338,,28,00,018,*7A

$GPGLL,5206.48698,N,00217.80616,W,141203.00,A,A*79

$GPRMC,141204.00,A,5206.48660,N,00217.80614,W,0.649,,070725,,,A*6E

$GPVTG,,T,,M,0.649,N,1.202,K,A*29

$GPGGA,141204.00,5206.48660,N,00217.80614,W,1,05,1.45,46.7,M,48.3,M,,*71

$GPGSA,A,3,03,19,06,11,09,,,,,,,,2.83,1.45,2.43*0A

$GPGSV,3,1,12,01,08,140,,03,34,087,31,04,68,082,,06,63,288,36*79

$GPGSV,3,2,12,07,04,167,,09,63,200,30,11,27,307,31,17,17,212,24*71

$GPGSV,3,3,12,19,31,234,29,21,04,272,,25,00,338,,28,00,018,*72

$GPGLL,5206.48660,N,00217.80614,W,141204.00,A,A*7B

$GPRMC,141205.00,A,5206.48646,N,00217.80574,W,0.068,,070725,,,A*6B

$GPVTG,,T,,M,0.068,N,0.126,K,A*28

$GPGGA,141205.00,5206.48646,N,00217.80574,W,1,05,1.45,45.5,M,48.3,M,,*70

$GPGSA,A,3,03,19,06,11,09,,,,,,,,2.83,1.45,2.43*0A

$GPGSV,3,1,12,01,08,140,,03,34,087,32,04,68,082,17,06,63,288,36*7C

$GPGSV,3,2,12,07,04,167,,09,63,200,30,11,27,307,29,17,17,212,25*79

$GPGSV,3,3,12,19,31,234,30,21,04,272,,25,00,338,,28,00,018,*7A

$GPGLL,5206.48646,N,00217.80574,W,141205.00,A,A*7B

$GPRMC,141206.00,A,5206.48666,N,00217.80543,W,0.929,,070725,,,A*62

$GPVTG,,T,,M,0.929,N,1.721,K,A*24

$GPGGA,141206.00,5206.48666,N,00217.80543,W,1,05,1.45,44.9,M,48.3,M,,*78

$GPGSA,A,3,03,19,06,11,09,,,,,,,,2.83,1.45,2.43*0A

$GPGSV,3,1,12,01,08,140,,03,34,087,30,04,68,082,16,06,63,288,37*7E

$GPGSV,3,2,12,07,05,167,,09,63,200,29,11,27,307,28,17,17,212,25*71

$GPGSV,3,3,12,19,31,234,31,21,04,272,,25,00,338,,28,00,018,*7B

$GPGLL,5206.48666,N,00217.80543,W,141206.00,A,A*7E

$GPRMC,141207.00,A,5206.48720,N,00217.80492,W,2.446,340.07,070725,,,A*75

$GPVTG,340.07,T,,M,2.446,N,4.530,K,A*3B

$GPGGA,141207.00,5206.48720,N,00217.80492,W,1,05,1.45,44.2,M,48.3,M,,*7C

$GPGSA,A,3,03,19,06,11,09,,,,,,,,2.83,1.45,2.43*0A

$GPGSV,3,1,12,01,08,140,,03,34,087,30,04,68,082,21,06,63,288,37*7A

$GPGSV,3,2,12,07,05,167,,09,63,200,28,11,27,307,16,17,17,212,22*7A

$GPGSV,3,3,12,19,31,234,24,21,04,272,,25,00,338,,28,00,018,*7F

$GPGLL,5206.48720,N,00217.80492,W,141207.00,A,A*71

$GPRMC,141208.00,A,5206.48821,N,00217.80457,W,4.260,3.96,070725,,,A*75

$GPVTG,3.96,T,,M,4.260,N,7.889,K,A*3F

$GPGGA,141208.00,5206.48821,N,00217.80457,W,1,06,1.40,44.0,M,48.3,M,,*70

$GPGSA,A,3,03,19,04,06,11,09,,,,,,,2.55,1.40,2.14*02

$GPGSV,3,1,12,01,08,140,,03,34,087,34,04,68,082,23,06,63,288,37*7C

$GPGSV,3,2,12,07,05,167,,09,64,200,28,11,27,307,17,17,17,212,20*7E

$GPGSV,3,3,12,19,31,234,26,21,04,272,,25,00,338,,28,00,018,*7D

$GPGLL,5206.48821,N,00217.80457,W,141208.00,A,A*79

$GPRMC,141209.00,A,5206.48955,N,00217.80440,W,5.131,3.35,070725,,,A*7F

$GPVTG,3.35,T,,M,5.131,N,9.503,K,A*31

$GPGGA,141209.00,5206.48955,N,00217.80440,W,1,06,1.40,43.8,M,48.3,M,,*7A

$GPGSA,A,3,03,19,04,06,11,09,,,,,,,2.55,1.40,2.14*02

$GPGSV,3,1,12,01,08,140,,03,34,087,31,04,68,082,23,06,63,288,31*7F

$GPGSV,3,2,12,07,05,167,,09,64,200,27,11,27,307,19,17,17,212,18*74

$GPGSV,3,3,12,19,31,234,24,21,04,272,,25,00,338,,28,00,018,*7F

$GPGLL,5206.48955,N,00217.80440,W,141209.00,A,A*7C

$GPRMC,141210.00,A,5206.49163,N,00217.80425,W,7.500,3.45,070725,,,A*7B

$GPVTG,3.45,T,,M,7.500,N,13.889,K,A*06

$GPGGA,141210.00,5206.49163,N,00217.80425,W,1,06,1.40,43.7,M,48.3,M,,*72

$GPGSA,A,3,03,19,04,06,11,09,,,,,,,2.55,1.40,2.14*02

$GPGSV,3,1,12,01,08,140,,03,34,087,30,04,68,082,24,06,63,288,30*78

$GPGSV,3,2,12,07,05,167,,09,64,200,28,11,27,307,20,17,17,212,19*70

$GPGSV,3,3,12,19,31,234,25,21,04,272,,25,00,338,,28,00,018,*7E

$GPGLL,5206.49163,N,00217.80425,W,141210.00,A,A*7B

$GPRMC,141211.00,A,5206.49399,N,00217.80386,W,8.905,4.17,070725,,,A*75

$GPVTG,4.17,T,,M,8.905,N,16.492,K,A*03

$GPGGA,141211.00,5206.49399,N,00217.80386,W,1,06,1.40,43.2,M,48.3,M,,*7F

$GPGSA,A,3,03,19,04,06,11,09,,,,,,,2.55,1.40,2.14*02

$GPGSV,3,1,12,01,08,140,,03,34,087,35,04,68,082,26,06,63,288,29*77

$GPGSV,3,2,12,07,05,167,,09,64,200,29,11,27,307,18,17,17,212,18*7B

$GPGSV,3,3,12,19,31,234,27,21,04,272,,25,00,338,,28,00,018,*7C

$GPGLL,5206.49399,N,00217.80386,W,141211.00,A,A*73

$GPRMC,141212.00,A,5206.49653,N,00217.80334,W,9.227,5.48,070725,,,A*7D

$GPVTG,5.48,T,,M,9.227,N,17.089,K,A*0D

$GPGGA,141212.00,5206.49653,N,00217.80334,W,1,06,1.40,42.9,M,48.3,M,,*7C

$GPGSA,A,3,03,19,04,06,11,09,,,,,,,2.55,1.40,2.14*02

$GPGSV,3,1,12,01,08,140,,03,34,087,31,04,68,082,25,06,63,288,28*71

$GPGSV,3,2,12,07,05,167,,09,64,200,29,11,27,307,17,17,17,212,19*75

$GPGSV,3,3,12,19,31,234,27,21,04,272,,25,00,338,,28,00,018,*7C

$GPGLL,5206.49653,N,00217.80334,W,141212.00,A,A*7A

$GPRMC,141213.00,A,5206.49899,N,00217.80277,W,9.067,7.14,070725,,,A*7F

$GPVTG,7.14,T,,M,9.067,N,16.792,K,A*0C

$GPGGA,141213.00,5206.49899,N,00217.80277,W,1,06,1.40,42.9,M,48.3,M,,*73

$GPGSA,A,3,03,19,04,06,11,09,,,,,,,2.55,1.40,2.14*02

$GPGSV,3,1,12,01,08,140,,03,34,087,30,04,68,082,25,06,63,288,28*70

$GPGSV,3,2,12,07,05,167,,09,64,200,28,11,27,307,19,17,17,212,22*72

$GPGSV,3,3,12,19,31,234,26,21,04,272,,25,00,338,,28,00,018,*7D

$GPGLL,5206.49899,N,00217.80277,W,141213.00,A,A*75

$GPRMC,141214.00,A,5206.50119,N,00217.80241,W,7.176,9.16,070725,,,A*77

$GPVTG,9.16,T,,M,7.176,N,13.290,K,A*0D

$GPGGA,141214.00,5206.50119,N,00217.80241,W,1,06,1.40,43.1,M,48.3,M,,*71

$GPGSA,A,3,03,19,04,06,11,09,,,,,,,2.55,1.40,2.14*02

$GPGSV,3,1,12,01,08,140,,03,34,087,31,04,68,082,26,06,63,288,33*78

$GPGSV,3,2,12,07,05,167,,09,64,200,28,11,27,307,24,17,17,212,23*7D

$GPGSV,3,3,12,19,30,234,32,21,04,272,,25,00,338,,28,00,018,*79

$GPGLL,5206.50119,N,00217.80241,W,141214.00,A,A*7E

$GPRMC,141215.00,A,5206.50290,N,00217.80209,W,5.212,11.18,070725,,,A*4C

$GPVTG,11.18,T,,M,5.212,N,9.652,K,A*08

$GPGGA,141215.00,5206.50290,N,00217.80209,W,1,06,1.40,43.5,M,48.3,M,,*7A

$GPGSA,A,3,03,19,04,06,11,09,,,,,,,2.55,1.40,2.14*02

$GPGSV,3,1,12,01,08,140,,03,34,087,35,04,68,082,26,06,63,288,34*7B

$GPGSV,3,2,12,07,05,167,,09,64,200,28,11,27,307,26,17,17,212,23*7F

$GPGSV,3,3,12,19,30,234,31,21,05,272,,25,00,338,,28,00,018,*7B

$GPGLL,5206.50290,N,00217.80209,W,141215.00,A,A*71

$GPRMC,141216.00,A,5206.50400,N,00217.80182,W,2.775,11.89,070725,,,A*4B

$GPVTG,11.89,T,,M,2.775,N,5.140,K,A*0B

$GPGGA,141216.00,5206.50400,N,00217.80182,W,1,06,1.40,43.7,M,48.3,M,,*74

$GPGSA,A,3,03,19,04,06,11,09,,,,,,,2.55,1.40,2.14*02

$GPGSV,3,1,12,01,08,140,,03,34,087,31,04,68,082,24,06,63,288,35*7C

$GPGSV,3,2,12,07,05,167,,09,64,200,28,11,27,307,25,17,17,212,20*7F

$GPGSV,3,3,12,19,30,234,32,21,05,272,,25,00,338,,28,00,018,*78

$GPGLL,5206.50400,N,00217.80182,W,141216.00,A,A*7D

$GPRMC,141217.00,A,5206.50461,N,00217.80138,W,2.146,14.88,070725,,,A*4E

$GPVTG,14.88,T,,M,2.146,N,3.975,K,A*01

$GPGGA,141217.00,5206.50461,N,00217.80138,W,1,06,1.40,43.6,M,48.3,M,,*72

$GPGSA,A,3,03,19,04,06,11,09,,,,,,,2.55,1.40,2.13*05

$GPGSV,3,1,12,01,08,140,,03,34,087,24,04,68,082,23,06,63,288,39*73

$GPGSV,3,2,12,07,05,167,,09,64,200,26,11,27,307,31,17,17,212,19*7E

$GPGSV,3,3,12,19,30,234,31,21,05,272,,25,00,338,,28,00,018,*7B

$GPGLL,5206.50461,N,00217.80138,W,141217.00,A,A*7A

$GPRMC,141218.00,A,5206.50505,N,00217.80042,W,2.903,32.62,070725,,,A*47

$GPVTG,32.62,T,,M,2.903,N,5.377,K,A*06

$GPGGA,141218.00,5206.50505,N,00217.80042,W,1,06,1.40,43.4,M,48.3,M,,*70

$GPGSA,A,3,03,19,04,06,11,09,,,,,,,2.55,1.40,2.13*05

$GPGSV,3,1,12,01,08,140,,03,34,087,30,04,68,082,24,06,63,288,37*7F

$GPGSV,3,2,12,07,05,167,,09,64,200,25,11,27,307,24,17,17,212,19*79

$GPGSV,3,3,12,19,30,234,31,21,05,272,,25,00,338,,28,00,018,*7B

$GPGLL,5206.50505,N,00217.80042,W,141218.00,A,A*7A

$GPRMC,141219.00,A,5206.50627,N,00217.79886,W,5.626,47.02,070725,,,A*48

$GPVTG,47.02,T,,M,5.626,N,10.419,K,A*36

$GPGGA,141219.00,5206.50627,N,00217.79886,W,1,06,1.40,43.5,M,48.3,M,,*75

$GPGSA,A,3,03,19,04,06,11,09,,,,,,,2.55,1.40,2.13*05

$GPGSV,3,1,12,01,08,140,,03,34,087,36,04,68,082,26,06,63,288,37*7B

$GPGSV,3,2,12,07,05,167,,09,64,200,28,11,27,307,25,17,17,212,21*7E

$GPGSV,3,3,12,19,30,234,30,21,05,272,,25,00,338,,28,00,018,*7A

$GPGLL,5206.50627,N,00217.79886,W,141219.00,A,A*7E

$GPRMC,141220.00,A,5206.50687,N,00217.79584,W,7.646,62.68,070725,,,A*48

$GPVTG,62.68,T,,M,7.646,N,14.161,K,A*37

$GPGGA,141220.00,5206.50687,N,00217.79584,W,1,06,1.40,43.8,M,48.3,M,,*77

$GPGSA,A,3,03,19,04,06,11,09,,,,,,,2.55,1.40,2.13*05

$GPGSV,3,1,12,01,08,140,,03,34,087,27,04,68,082,35,06,63,288,24*7B

$GPGSV,3,2,12,07,05,167,,09,64,200,32,11,27,307,25,17,17,212,21*75

$GPGSV,3,3,12,19,30,234,23,21,05,272,,25,00,338,,28,00,018,*78

$GPGLL,5206.50687,N,00217.79584,W,141220.00,A,A*71

$GPRMC,141221.00,A,5206.50685,N,00217.79174,W,9.552,74.04,070725,,,A*45

$GPVTG,74.04,T,,M,9.552,N,17.690,K,A*38

$GPGGA,141221.00,5206.50685,N,00217.79174,W,1,06,1.40,44.2,M,48.3,M,,*72

$GPGSA,A,3,03,19,04,06,11,09,,,,,,,2.55,1.40,2.13*05

$GPGSV,3,1,12,01,08,140,28,03,34,087,26,04,68,082,31,06,63,288,29*79

$GPGSV,3,2,12,07,05,167,,09,64,200,26,11,27,307,27,17,17,212,32*70

$GPGSV,3,3,12,19,30,234,22,21,05,272,,25,00,338,,28,00,018,*79

$GPGLL,5206.50685,N,00217.79174,W,141221.00,A,A*79

$GPRMC,141222.00,A,5206.50644,N,00217.78687,W,11.704,95.92,070725,,,A*79

$GPVTG,95.92,T,,M,11.704,N,21.676,K,A*0D

$GPGGA,141222.00,5206.50644,N,00217.78687,W,1,06,1.40,44.0,M,48.3,M,,*74

$GPGSA,A,3,03,19,04,06,11,09,,,,,,,2.55,1.40,2.13*05

$GPGSV,3,1,12,01,08,140,17,03,34,087,26,04,68,082,30,06,63,288,29*74

$GPGSV,3,2,12,07,05,167,,09,64,200,31,11,27,307,32,17,17,212,20*71

$GPGSV,3,3,12,19,30,234,21,21,05,272,,25,00,338,,28,00,018,*7A

$GPGLL,5206.50644,N,00217.78687,W,141222.00,A,A*7D

$GPRMC,141223.00,A,5206.50589,N,00217.78099,W,13.696,99.31,070725,,,A*7E

$GPVTG,99.31,T,,M,13.696,N,25.364,K,A*02

$GPGGA,141223.00,5206.50589,N,00217.78099,W,1,06,1.40,44.0,M,48.3,M,,*7E

$GPGSA,A,3,03,19,04,06,11,09,,,,,,,2.55,1.40,2.13*05

$GPGSV,3,1,12,01,08,140,14,03,34,087,26,04,68,082,30,06,63,288,29*77

$GPGSV,3,2,12,07,05,167,,09,64,200,30,11,27,307,30,17,17,212,18*79

$GPGSV,3,3,12,19,30,234,20,21,05,272,,25,00,338,,28,00,018,*7B

$GPGLL,5206.50589,N,00217.78099,W,141223.00,A,A*77

$GPRMC,141224.00,A,5206.50517,N,00217.77425,W,15.745,102.05,070725,,,A*4F

$GPVTG,102.05,T,,M,15.745,N,29.160,K,A*35

$GPGGA,141224.00,5206.50517,N,00217.77425,W,1,06,1.40,43.4,M,48.3,M,,*71

$GPGSA,A,3,03,19,04,06,11,09,,,,,,,2.55,1.40,2.13*05

$GPGSV,3,1,12,01,08,140,11,03,34,087,25,04,68,082,29,06,63,288,29*79

$GPGSV,3,2,12,07,05,167,,09,64,200,28,11,27,307,30,17,17,212,15*7D

$GPGSV,3,3,12,19,30,234,20,21,05,272,,25,00,338,,28,00,018,*7B

$GPGLL,5206.50517,N,00217.77425,W,141224.00,A,A*7B

$GPRMC,141225.00,A,5206.50442,N,00217.76673,W,17.586,100.86,070725,,,A*49

$GPVTG,100.86,T,,M,17.586,N,32.570,K,A*3C

$GPGGA,141225.00,5206.50442,N,00217.76673,W,1,06,1.40,43.9,M,48.3,M,,*7C

$GPGSA,A,3,03,19,04,06,11,09,,,,,,,2.55,1.40,2.13*05

$GPGSV,3,1,12,01,08,140,17,03,34,087,23,04,68,082,28,06,63,288,29*78

$GPGSV,3,2,12,07,05,167,,09,64,200,29,11,27,307,31,17,17,212,18*70

$GPGSV,3,3,12,19,30,234,21,21,05,272,,25,00,338,,28,00,018,*7A

$GPGLL,5206.50442,N,00217.76673,W,141225.00,A,A*7B

$GPRMC,141226.00,A,5206.50376,N,00217.75843,W,19.134,99.08,070725,,,A*70

$GPVTG,99.08,T,,M,19.134,N,35.437,K,A*0D

$GPGGA,141226.00,5206.50376,N,00217.75843,W,1,06,1.40,43.6,M,48.3,M,,*7E

$GPGSA,A,3,03,19,04,06,11,09,,,,,,,2.55,1.40,2.13*05

$GPGSV,3,1,12,01,08,140,15,03,34,087,25,04,68,082,29,06,63,288,28*7C

$GPGSV,3,2,12,07,05,167,,09,64,200,32,11,27,307,31,17,17,212,17*75

$GPGSV,3,3,12,19,30,234,19,21,05,272,,25,00,338,,28,00,018,*71

$GPGLL,5206.50376,N,00217.75843,W,141226.00,A,A*76

$GPRMC,141227.00,A,5206.50310,N,00217.74961,W,19.800,96.94,070725,,,A*75

$GPVTG,96.94,T,,M,19.800,N,36.669,K,A*03

$GPGGA,141227.00,5206.50310,N,00217.74961,W,1,06,1.40,43.7,M,48.3,M,,*7E

$GPGSA,A,3,03,19,04,06,11,09,,,,,,,2.55,1.40,2.13*05

$GPGSV,3,1,12,01,08,140,13,03,34,087,27,04,68,082,30,06,63,288,28*70

$GPGSV,3,2,12,07,05,167,,09,64,200,32,11,27,307,30,17,17,212,16*75

$GPGSV,3,3,12,19,30,234,18,21,05,272,,25,00,338,,28,00,018,*70

$GPGLL,5206.50310,N,00217.74961,W,141227.00,A,A*77

$GPRMC,141228.00,A,5206.50243,N,00217.74088,W,19.540,95.72,070725,,,A*71

$GPVTG,95.72,T,,M,19.540,N,36.188,K,A*09

$GPGGA,141228.00,5206.50243,N,00217.74088,W,1,06,1.40,43.9,M,48.3,M,,*76

$GPGSA,A,3,03,19,04,06,11,09,,,,,,,2.55,1.40,2.13*05

$GPGSV,3,1,12,01,08,140,13,03,34,087,27,04,68,082,30,06,63,288,28*70

$GPGSV,3,2,12,07,05,167,,09,64,200,32,11,27,307,29,17,17,212,17*7C

$GPGSV,3,3,12,19,30,234,15,21,05,272,,25,00,338,,28,00,018,*7D

$GPGLL,5206.50243,N,00217.74088,W,141228.00,A,A*71

$GPRMC,141229.00,A,5206.50212,N,00217.73213,W,19.277,93.21,070725,,,A*70

$GPVTG,93.21,T,,M,19.277,N,35.700,K,A*0F

$GPGGA,141229.00,5206.50212,N,00217.73213,W,1,06,1.40,44.4,M,48.3,M,,*7E

$GPGSA,A,3,03,19,04,06,11,09,,,,,,,2.55,1.40,2.13*05

$GPGSV,3,1,12,01,08,140,15,03,34,087,25,04,68,082,30,06,63,288,28*74

$GPGSV,3,2,12,07,05,167,,09,64,200,33,11,27,307,26,17,17,212,19*7C

$GPGSV,3,3,12,19,30,234,18,21,05,272,,25,00,338,,28,00,018,*70

$GPGLL,5206.50212,N,00217.73213,W,141229.00,A,A*73

$GPRMC,141230.00,A,5206.50189,N,00217.72352,W,19.067,92.28,070725,,,A*77

$GPVTG,92.28,T,,M,19.067,N,35.311,K,A*00

$GPGGA,141230.00,5206.50189,N,00217.72352,W,1,06,1.40,44.9,M,48.3,M,,*7F

$GPGSA,A,3,03,19,04,06,11,09,,,,,,,2.55,1.40,2.13*05

$GPGSV,3,1,12,01,08,140,14,03,34,087,22,04,68,082,29,06,63,288,28*7A

$GPGSV,3,2,12,07,05,167,,09,64,200,27,11,27,307,23,17,17,212,29*7F

$GPGSV,3,3,12,19,30,234,22,21,05,272,,25,00,338,,28,00,018,*79

$GPGLL,5206.50189,N,00217.72352,W,141230.00,A,A*7F

$GPRMC,141231.00,A,5206.50173,N,00217.71531,W,18.031,91.20,070725,,,A*7A

$GPVTG,91.20,T,,M,18.031,N,33.393,K,A*05

$GPGGA,141231.00,5206.50173,N,00217.71531,W,1,06,1.40,44.6,M,48.3,M,,*74

$GPGSA,A,3,03,19,04,06,11,09,,,,,,,2.55,1.40,2.13*05

$GPGSV,3,1,12,01,08,140,,03,34,087,18,04,68,082,30,06,63,288,27*71

$GPGSV,3,2,12,07,05,167,,09,64,200,25,11,27,307,17,17,17,212,22*71

$GPGSV,3,3,12,19,30,234,24,21,05,272,,25,00,338,,28,00,018,*7F

$GPGLL,5206.50173,N,00217.71531,W,141231.00,A,A*7B

$GPRMC,141232.00,A,5206.50142,N,00217.70774,W,16.544,92.58,070725,,,A*7C

$GPVTG,92.58,T,,M,16.544,N,30.640,K,A*08

$GPGGA,141232.00,5206.50142,N,00217.70774,W,1,06,1.40,44.6,M,48.3,M,,*77

$GPGSA,A,3,03,19,04,06,11,09,,,,,,,2.54,1.40,2.13*04

$GPGSV,3,1,12,01,08,140,,03,34,087,18,04,68,082,30,06,63,288,27*71

$GPGSV,3,2,12,07,05,167,,09,64,200,24,11,27,307,14,17,17,212,19*7B

$GPGSV,3,3,12,19,30,234,25,21,05,272,,25,00,338,,28,00,018,*7E

$GPGLL,5206.50142,N,00217.70774,W,141232.00,A,A*78

$GPRMC,141233.00,A,5206.50124,N,00217.70125,W,13.900,92.58,070725,,,A*76

$GPVTG,92.58,T,,M,13.900,N,25.742,K,A*06

$GPGGA,141233.00,5206.50124,N,00217.70125,W,1,05,2.42,44.7,M,48.3,M,,*77

$GPGSA,A,3,03,19,04,06,09,,,,,,,,3.62,2.42,2.69*0C

$GPGSV,3,1,12,01,08,140,09,03,34,087,19,04,68,082,29,06,63,288,26*70

$GPGSV,3,2,12,07,05,167,,09,64,200,20,11,27,307,10,17,17,212,30*70

$GPGSV,3,3,12,19,30,234,25,21,05,272,,25,00,338,,28,00,018,*7E

$GPGLL,5206.50124,N,00217.70125,W,141233.00,A,A*7B

$GPRMC,141234.00,A,5206.50067,N,00217.69611,W,10.969,94.83,070725,,,A*73

$GPVTG,94.83,T,,M,10.969,N,20.315,K,A*09

$GPGGA,141234.00,5206.50067,N,00217.69611,W,1,05,2.42,45.0,M,48.3,M,,*78

$GPGSA,A,3,03,19,04,06,09,,,,,,,,3.62,2.42,2.69*0C

$GPGSV,3,1,12,01,08,140,19,03,34,087,19,04,68,082,28,06,63,288,25*73

$GPGSV,3,2,12,07,05,167,,09,64,200,18,11,27,307,08,17,17,212,31*73

$GPGSV,3,3,12,19,30,234,23,21,05,272,,25,00,338,,28,00,018,*78

$GPGLL,5206.50067,N,00217.69611,W,141234.00,A,A*72

$GPRMC,141235.00,A,5206.50112,N,00217.69296,W,6.823,92.73,070725,,,A*4B

$GPVTG,92.73,T,,M,6.823,N,12.635,K,A*3E

$GPGGA,141235.00,5206.50112,N,00217.69296,W,1,05,2.42,45.7,M,48.3,M,,*76

$GPGSA,A,3,03,19,04,06,09,,,,,,,,3.62,2.42,2.69*0C

$GPGSV,3,1,12,01,08,140,22,03,34,087,19,04,68,082,27,06,63,288,25*74

$GPGSV,3,2,12,07,05,167,18,09,64,200,20,11,27,307,09,17,17,212,26*76

$GPGSV,3,3,12,19,30,234,21,21,05,272,,25,00,338,,28,00,018,*7A

$GPGLL,5206.50112,N,00217.69296,W,141235.00,A,A*7B

$GPRMC,141236.00,A,5206.50088,N,00217.69058,W,5.088,94.28,070725,,,A*48

$GPVTG,94.28,T,,M,5.088,N,9.423,K,A*03

$GPGGA,141236.00,5206.50088,N,00217.69058,W,1,05,2.42,46.0,M,48.3,M,,*73

$GPGSA,A,3,03,19,04,06,09,,,,,,,,3.62,2.42,2.69*0C

$GPGSV,3,1,12,01,08,140,21,03,34,087,19,04,68,082,26,06,63,288,26*75

$GPGSV,3,2,12,07,05,167,20,09,64,200,34,11,27,307,09,17,17,212,22*7C

$GPGSV,3,3,12,19,30,234,21,21,05,272,,25,00,338,,28,00,018,*7A

$GPGLL,5206.50088,N,00217.69058,W,141236.00,A,A*7A

$GPRMC,141237.00,A,5206.49994,N,00217.68834,W,5.328,112.48,070725,,,A*76

$GPVTG,112.48,T,,M,5.328,N,9.868,K,A*30

$GPGGA,141237.00,5206.49994,N,00217.68834,W,1,06,1.39,46.4,M,48.3,M,,*75

$GPGSA,A,3,03,19,04,06,11,09,,,,,,,2.54,1.39,2.13*0A

$GPGSV,3,1,12,01,08,140,18,03,34,087,20,04,68,082,26,06,63,288,25*76

$GPGSV,3,2,12,07,05,167,20,09,64,200,28,11,27,307,16,17,17,212,19*77

$GPGSV,3,3,12,19,30,234,20,21,05,272,,25,00,338,,28,00,018,*7B

$GPGLL,5206.49994,N,00217.68834,W,141237.00,A,A*74

$GPRMC,141238.00,A,5206.49885,N,00217.68621,W,5.856,122.72,070725,,,A*7A

$GPVTG,122.72,T,,M,5.856,N,10.845,K,A*0F

$GPGGA,141238.00,5206.49885,N,00217.68621,W,1,06,1.39,46.8,M,48.3,M,,*7D

$GPGSA,A,3,03,19,04,06,11,09,,,,,,,2.54,1.39,2.13*0A

$GPGSV,3,1,12,01,08,140,15,03,34,087,22,04,68,082,27,06,63,288,25*78

$GPGSV,3,2,12,07,05,167,19,09,64,200,27,11,27,307,17,17,17,212,13*79

$GPGSV,3,3,12,19,30,234,22,21,05,272,,25,00,338,,28,00,018,*79

$GPGLL,5206.49885,N,00217.68621,W,141238.00,A,A*70

$GPRMC,141239.00,A,5206.49712,N,00217.68387,W,7.624,131.17,070725,,,A*7B

$GPVTG,131.17,T,,M,7.624,N,14.120,K,A*09

$GPGGA,141239.00,5206.49712,N,00217.68387,W,1,06,1.39,46.8,M,48.3,M,,*74

$GPGSA,A,3,03,19,04,06,11,09,,,,,,,2.54,1.39,2.13*0A

$GPGSV,3,1,12,01,08,140,12,03,34,087,22,04,68,082,26,06,63,288,27*7C

$GPGSV,3,2,12,07,05,167,16,09,64,200,17,11,27,307,17,17,17,212,27*72

$GPGSV,3,3,12,19,30,234,30,21,05,272,,25,00,338,,28,00,018,*7A

$GPGLL,5206.49712,N,00217.68387,W,141239.00,A,A*79

$GPRMC,141240.00,A,5206.49391,N,00217.68195,W,11.113,154.96,070725,,,A*45

$GPVTG,154.96,T,,M,11.113,N,20.581,K,A*3F

$GPGGA,141240.00,5206.49391,N,00217.68195,W,1,06,1.39,46.8,M,48.3,M,,*74

$GPGSA,A,3,03,19,04,06,11,09,,,,,,,2.54,1.39,2.12*0B

$GPGSV,3,1,12,01,08,140,09,03,34,087,24,04,68,082,24,06,63,288,27*72

$GPGSV,3,2,12,07,05,167,13,09,64,200,30,11,27,307,21,17,17,212,27*77

$GPGSV,3,3,12,19,30,234,24,21,05,272,,25,00,338,,28,00,018,*7F

$GPGLL,5206.49391,N,00217.68195,W,141240.00,A,A*79

$GPRMC,141241.00,A,5206.48977,N,00217.68082,W,14.140,170.22,070725,,,A*4A

$GPVTG,170.22,T,,M,14.140,N,26.187,K,A*31

$GPGGA,141241.00,5206.48977,N,00217.68082,W,1,06,1.39,46.1,M,48.3,M,,*78

$GPGSA,A,3,03,19,04,06,11,09,,,,,,,2.54,1.39,2.12*0B

$GPGSV,3,1,12,01,08,140,12,03,34,087,30,04,67,082,31,06,63,288,26*77

$GPGSV,3,2,12,07,05,167,12,09,64,200,32,11,27,307,22,17,17,212,25*75

$GPGSV,3,3,12,19,30,234,27,21,05,272,,25,00,338,,28,00,018,*7C

$GPGLL,5206.48977,N,00217.68082,W,141241.00,A,A*7C

$GPRMC,141242.00,A,5206.48560,N,00217.68017,W,15.563,175.41,070725,,,A*4B

$GPVTG,175.41,T,,M,15.563,N,28.822,K,A*3D

$GPGGA,141242.00,5206.48560,N,00217.68017,W,1,06,1.39,45.9,M,48.3,M,,*76

$GPGSA,A,3,03,19,04,06,11,09,,,,,,,2.54,1.39,2.12*0B

$GPGSV,3,1,12,01,08,140,14,03,34,087,27,04,67,082,33,06,63,288,24*77

$GPGSV,3,2,12,07,05,167,11,09,64,200,33,11,27,307,22,17,17,212,25*77

$GPGSV,3,3,12,19,30,234,29,21,05,272,,25,00,338,,28,00,018,*72

$GPGLL,5206.48560,N,00217.68017,W,141242.00,A,A*79

$GPRMC,141243.00,A,5206.48083,N,00217.67969,W,17.012,177.46,070725,,,A*49

$GPVTG,177.46,T,,M,17.012,N,31.506,K,A*3A

$GPGGA,141243.00,5206.48083,N,00217.67969,W,1,06,1.39,45.8,M,48.3,M,,*71

$GPGSA,A,3,03,19,04,06,11,09,,,,,,,2.54,1.39,2.12*0B

$GPGSV,3,1,12,01,08,140,12,03,34,087,33,04,67,082,34,06,63,287,24*7C

$GPGSV,3,2,12,07,05,167,11,09,64,200,34,11,27,307,21,17,17,212,28*7E

$GPGSV,3,3,12,19,30,234,28,21,05,272,,25,00,338,,28,00,018,*73

$GPGLL,5206.48083,N,00217.67969,W,141243.00,A,A*7F

$GPRMC,141244.00,A,5206.47609,N,00217.67981,W,16.761,179.29,070725,,,A*46

$GPVTG,179.29,T,,M,16.761,N,31.041,K,A*39

$GPGGA,141244.00,5206.47609,N,00217.67981,W,1,06,1.39,45.8,M,48.3,M,,*7B

$GPGSA,A,3,03,19,04,06,11,09,,,,,,,2.54,1.39,2.12*0B

$GPGSV,3,1,12,01,08,140,12,03,34,087,34,04,67,082,35,06,63,287,27*79

$GPGSV,3,2,12,07,05,167,15,09,64,200,34,11,27,307,21,17,17,212,27*75

$GPGSV,3,3,12,19,30,234,29,21,05,272,,25,00,338,,28,00,018,*72

$GPGLL,5206.47609,N,00217.67981,W,141244.00,A,A*75

$GPRMC,141245.00,A,5206.47153,N,00217.68032,W,15.493,181.20,070725,,,A*42

$GPVTG,181.20,T,,M,15.493,N,28.692,K,A*3A

$GPGGA,141245.00,5206.47153,N,00217.68032,W,1,06,1.39,45.7,M,48.3,M,,*73

$GPGSA,A,3,03,19,04,06,11,09,,,,,,,2.54,1.39,2.12*0B

$GPGSV,3,1,12,01,08,140,10,03,34,087,28,04,67,082,37,06,63,287,33*71

$GPGSV,3,2,12,07,05,167,15,09,64,200,38,11,27,307,25,17,17,212,25*7F

$GPGSV,3,3,12,19,30,234,27,21,05,272,,25,00,338,,28,00,018,*7C

$GPGLL,5206.47153,N,00217.68032,W,141245.00,A,A*72

$GPRMC,141246.00,A,5206.46776,N,00217.68045,W,14.456,180.64,070725,,,A*48

$GPVTG,180.64,T,,M,14.456,N,26.773,K,A*33

$GPGGA,141246.00,5206.46776,N,00217.68045,W,1,06,1.39,44.8,M,48.3,M,,*7E

$GPGSA,A,3,03,19,04,06,11,09,,,,,,,2.54,1.39,2.12*0B

$GPGSV,3,1,12,01,08,140,11,03,34,087,26,04,67,082,36,06,63,287,31*7D

$GPGSV,3,2,12,07,05,167,15,09,64,199,37,11,27,307,27,17,17,212,24*70

$GPGSV,3,3,12,19,30,234,25,21,05,272,,25,00,338,,28,00,018,*7E

$GPGLL,5206.46776,N,00217.68045,W,141246.00,A,A*71

$GPRMC,141247.00,A,5206.46431,N,00217.68040,W,13.159,180.15,070725,,,A*47

$GPVTG,180.15,T,,M,13.159,N,24.370,K,A*3D

$GPGGA,141247.00,5206.46431,N,00217.68040,W,1,06,1.39,44.7,M,48.3,M,,*75

$GPGSA,A,3,03,19,04,06,11,09,,,,,,,2.54,1.39,2.12*0B

$GPGSV,3,1,12,01,08,140,15,03,34,087,33,04,67,082,36,06,63,287,30*7C

$GPGSV,3,2,12,07,05,167,15,09,64,199,37,11,27,307,28,17,17,212,23*78

$GPGSV,3,3,12,19,30,234,26,21,05,272,,25,00,338,,28,00,018,*7D

$GPGLL,5206.46431,N,00217.68040,W,141247.00,A,A*75

$GPRMC,141248.00,A,5206.46131,N,00217.68022,W,10.637,179.11,070725,,,A*47

$GPVTG,179.11,T,,M,10.637,N,19.699,K,A*3F

$GPGGA,141248.00,5206.46131,N,00217.68022,W,1,06,1.39,44.8,M,48.3,M,,*74

$GPGSA,A,3,03,19,04,06,11,09,,,,,,,2.54,1.39,2.12*0B

$GPGSV,3,1,12,01,08,140,17,03,34,087,19,04,67,082,36,06,63,287,21*76

$GPGSV,3,2,12,07,05,167,15,09,64,199,36,11,28,307,24,17,17,212,23*7A

$GPGSV,3,3,12,19,30,234,27,21,05,272,,25,00,338,,28,00,018,*7C

$GPGLL,5206.46131,N,00217.68022,W,141248.00,A,A*7B

$GPRMC,141249.00,A,5206.45847,N,00217.67870,W,10.560,163.42,070725,,,A*41

$GPVTG,163.42,T,,M,10.560,N,19.556,K,A*33

$GPGGA,141249.00,5206.45847,N,00217.67870,W,1,06,1.39,45.1,M,48.3,M,,*76

$GPGSA,A,3,03,19,04,06,11,09,,,,,,,2.54,1.39,2.12*0B

$GPGSV,3,1,12,01,08,140,21,03,34,087,20,04,67,082,27,06,63,287,30*79

$GPGSV,3,2,12,07,05,167,15,09,64,199,35,11,28,307,24,17,17,212,25*7F

$GPGSV,3,3,12,19,30,234,28,21,05,272,,25,00,338,,28,00,018,*73

$GPGLL,5206.45847,N,00217.67870,W,141249.00,A,A*71

$GPRMC,141250.00,A,5206.45611,N,00217.67618,W,10.714,149.54,070725,,,A*4A

$GPVTG,149.54,T,,M,10.714,N,19.843,K,A*34

$GPGGA,141250.00,5206.45611,N,00217.67618,W,1,06,1.39,46.2,M,48.3,M,,*73

$GPGSA,A,3,03,19,04,06,11,09,,,,,,,2.54,1.39,2.12*0B

$GPGSV,3,1,12,01,08,140,20,03,34,087,21,04,67,082,27,06,63,287,30*79

$GPGSV,3,2,12,07,05,167,12,09,64,199,24,11,28,307,22,17,17,212,22*79

$GPGSV,3,3,12,19,30,234,32,21,05,272,,25,00,338,,28,00,018,*78

$GPGLL,5206.45611,N,00217.67618,W,141250.00,A,A*74

$GPRMC,141251.00,A,5206.45385,N,00217.67323,W,10.647,147.21,070725,,,A*45

$GPVTG,147.21,T,,M,10.647,N,19.717,K,A*31

$GPGGA,141251.00,5206.45385,N,00217.67323,W,1,06,1.39,46.5,M,48.3,M,,*70

$GPGSA,A,3,03,19,04,06,11,09,,,,,,,2.54,1.39,2.12*0B

$GPGSV,3,1,12,01,08,140,20,03,34,087,20,04,67,082,32,06,63,287,30*7C

$GPGSV,3,2,12,07,05,167,12,09,64,199,21,11,28,307,20,17,17,212,23*7F

$GPGSV,3,3,12,19,30,234,23,21,05,272,,25,00,338,,28,00,018,*78

$GPGLL,5206.45385,N,00217.67323,W,141251.00,A,A*70

$GPRMC,141252.00,A,5206.45173,N,00217.66995,W,10.614,141.30,070725,,,A*4B

$GPVTG,141.30,T,,M,10.614,N,19.657,K,A*34

$GPGGA,141252.00,5206.45173,N,00217.66995,W,1,06,1.39,46.5,M,48.3,M,,*7E

$GPGSA,A,3,03,19,04,06,11,09,,,,,,,2.54,1.39,2.12*0B

$GPGSV,3,1,12,01,08,140,22,03,34,087,20,04,67,082,33,06,63,287,30*7F

$GPGSV,3,2,12,07,05,167,12,09,64,199,16,11,28,307,23,17,17,212,25*7E

$GPGSV,3,3,12,19,30,234,24,21,05,272,,25,00,338,,28,00,018,*7F

$GPGLL,5206.45173,N,00217.66995,W,141252.00,A,A*7E

$GPRMC,141253.00,A,5206.45012,N,00217.66656,W,9.712,136.49,070725,,,A*7D

$GPVTG,136.49,T,,M,9.712,N,17.986,K,A*08

$GPGGA,141253.00,5206.45012,N,00217.66656,W,1,06,1.39,46.2,M,48.3,M,,*7E

$GPGSA,A,3,03,19,04,06,11,09,,,,,,,2.54,1.39,2.12*0B

$GPGSV,3,1,12,01,08,140,20,03,34,087,25,04,67,082,33,06,63,287,29*70

$GPGSV,3,2,12,07,05,167,12,09,64,199,29,11,28,307,25,17,17,212,22*73

$GPGSV,3,3,12,19,30,233,24,21,05,272,,25,00,338,,28,00,018,*78

$GPGLL,5206.45012,N,00217.66656,W,141253.00,A,A*79

$GPRMC,141254.00,A,5206.44966,N,00217.66359,W,6.615,129.91,070725,,,A*79

$GPVTG,129.91,T,,M,6.615,N,12.251,K,A*0E

$GPGGA,141254.00,5206.44966,N,00217.66359,W,1,06,1.39,46.0,M,48.3,M,,*7A

$GPGSA,A,3,03,19,04,06,11,09,,,,,,,2.54,1.39,2.12*0B

$GPGSV,3,1,12,01,08,140,19,03,34,087,25,04,67,082,30,06,63,287,27*77

$GPGSV,3,2,12,07,05,167,12,09,64,199,28,11,28,307,23,17,17,212,22*74

$GPGSV,3,3,12,19,30,233,24,21,05,272,,25,00,338,,28,00,018,*78

$GPGLL,5206.44966,N,00217.66359,W,141254.00,A,A*7F

$GPRMC,141255.00,A,5206.44961,N,00217.66077,W,6.293,112.99,070725,,,A*7A

$GPVTG,112.99,T,,M,6.293,N,11.656,K,A*04

$GPGGA,141255.00,5206.44961,N,00217.66077,W,1,06,1.39,45.9,M,48.3,M,,*79

$GPGSA,A,3,03,19,04,06,11,09,,,,,,,2.54,1.39,2.12*0B

$GPGSV,3,1,12,01,08,140,16,03,34,087,22,04,67,082,29,06,63,287,26*76

$GPGSV,3,2,12,07,05,167,12,09,64,199,33,11,28,307,24,17,17,212,22*79

$GPGSV,3,3,12,19,30,233,25,21,05,272,,25,00,338,,28,00,018,*79

$GPGLL,5206.44961,N,00217.66077,W,141255.00,A,A*76

$GPRMC,141256.00,A,5206.45002,N,00217.65783,W,6.696,98.11,070725,,,A*49

$GPVTG,98.11,T,,M,6.696,N,12.401,K,A*35

$GPGGA,141256.00,5206.45002,N,00217.65783,W,1,06,1.39,45.7,M,48.3,M,,*76

$GPGSA,A,3,03,19,04,06,11,09,,,,,,,2.54,1.39,2.12*0B

$GPGSV,3,1,12,01,08,140,14,03,34,087,25,04,67,082,28,06,63,287,25*71

$GPGSV,3,2,12,07,05,167,13,09,64,199,19,11,28,307,25,17,17,212,23*70

$GPGSV,3,3,12,19,30,233,26,21,05,272,,25,00,338,,28,00,018,*7A

$GPGLL,5206.45002,N,00217.65783,W,141256.00,A,A*77

$GPRMC,141257.00,A,5206.45131,N,00217.65424,W,8.845,74.56,070725,,,A*48

$GPVTG,74.56,T,,M,8.845,N,16.381,K,A*31

$GPGGA,141257.00,5206.45131,N,00217.65424,W,1,06,1.39,45.7,M,48.3,M,,*78

$GPGSA,A,3,03,19,04,06,11,09,,,,,,,2.53,1.39,2.12*0C

$GPGSV,3,1,12,01,08,140,13,03,34,087,25,04,67,082,34,06,63,287,30*7F

$GPGSV,3,2,12,07,05,167,13,09,64,199,29,11,28,307,25,17,17,212,20*70

$GPGSV,3,3,12,19,30,233,24,21,05,272,,25,00,338,,28,00,018,*78

$GPGLL,5206.45131,N,00217.65424,W,141257.00,A,A*79

$GPRMC,141258.00,A,5206.45410,N,00217.65019,W,12.901,47.70,070725,,,A*75

$GPVTG,47.70,T,,M,12.901,N,23.892,K,A*00

$GPGGA,141258.00,5206.45410,N,00217.65019,W,1,06,1.39,45.7,M,48.3,M,,*7B

$GPGSA,A,3,03,19,04,06,11,09,,,,,,,2.53,1.39,2.12*0C

$GPGSV,3,1,12,01,08,140,14,03,34,087,30,04,67,082,29,06,63,287,31*71

$GPGSV,3,2,12,07,05,167,13,09,64,199,29,11,28,307,25,17,17,212,23*73

$GPGSV,3,3,12,19,30,233,24,21,05,272,,25,00,338,,28,00,018,*78

$GPGLL,5206.45410,N,00217.65019,W,141258.00,A,A*7A

$GPRMC,141259.00,A,5206.45751,N,00217.64585,W,16.330,37.00,070725,,,A*7F

$GPVTG,37.00,T,,M,16.330,N,30.243,K,A*08

$GPGGA,141259.00,5206.45751,N,00217.64585,W,1,06,1.39,46.3,M,48.3,M,,*7A

$GPGSA,A,3,03,19,04,06,11,09,,,,,,,2.53,1.39,2.12*0C

$GPGSV,3,1,12,01,08,140,14,03,34,087,29,04,67,082,27,06,63,287,34*72

$GPGSV,3,2,12,07,05,167,13,09,64,199,30,11,28,307,28,17,17,212,22*77

$GPGSV,3,3,12,19,30,233,26,21,05,272,,25,00,338,,28,00,018,*7A

$GPGLL,5206.45751,N,00217.64585,W,141259.00,A,A*7C

$GPRMC,141300.00,A,5206.46187,N,00217.64109,W,19.007,34.14,070725,,,A*72

$GPVTG,34.14,T,,M,19.007,N,35.200,K,A*04

$GPGGA,141300.00,5206.46187,N,00217.64109,W,1,06,1.39,46.1,M,48.3,M,,*7B

$GPGSA,A,3,03,19,04,06,11,09,,,,,,,2.53,1.39,2.12*0C

$GPGSV,3,1,12,01,08,140,13,03,34,087,29,04,67,082,24,06,63,287,33*71

$GPGSV,3,2,12,07,05,167,13,09,64,199,31,11,28,307,14,17,17,212,22*79

$GPGSV,3,3,12,19,30,233,27,21,05,272,,25,00,338,,28,00,018,*7B

$GPGLL,5206.46187,N,00217.64109,W,141300.00,A,A*7F

$GPRMC,141301.00,A,5206.46667,N,00217.63591,W,21.294,32.04,070725,,,A*7C

$GPVTG,32.04,T,,M,21.294,N,39.437,K,A*0E

$GPGGA,141301.00,5206.46667,N,00217.63591,W,1,06,1.39,45.3,M,48.3,M,,*70

$GPGSA,A,3,03,19,04,06,11,09,,,,,,,2.53,1.39,2.12*0C

$GPGSV,3,1,12,01,08,140,12,03,34,087,29,04,67,082,20,06,63,287,33*74

$GPGSV,3,2,12,07,05,167,,09,64,199,30,11,28,307,15,17,17,212,23*7A

$GPGSV,3,3,12,19,30,233,29,21,05,272,,25,00,338,,28,00,018,*75

$GPGLL,5206.46667,N,00217.63591,W,141301.00,A,A*75

$GPRMC,141302.00,A,5206.47186,N,00217.63111,W,21.287,30.12,070725,,,A*7D

$GPVTG,30.12,T,,M,21.287,N,39.423,K,A*0C

$GPGGA,141302.00,5206.47186,N,00217.63111,W,1,06,1.39,45.2,M,48.3,M,,*77

$GPGSA,A,3,03,19,04,06,11,09,,,,,,,2.53,1.39,2.12*0C

$GPGSV,3,1,12,01,08,140,08,03,34,087,19,04,67,082,14,06,63,287,34*7C

$GPGSV,3,2,12,07,05,167,,09,64,199,30,11,28,307,20,17,17,212,25*7A

$GPGSV,3,3,12,19,30,233,29,21,05,272,,25,00,338,,28,00,018,*75

$GPGLL,5206.47186,N,00217.63111,W,141302.00,A,A*73

$GPRMC,141303.00,A,5206.47718,N,00217.62623,W,21.756,30.11,070725,,,A*70

$GPVTG,30.11,T,,M,21.756,N,40.292,K,A*04

$GPGGA,141303.00,5206.47718,N,00217.62623,W,1,06,1.39,44.6,M,48.3,M,,*75

$GPGSA,A,3,03,19,04,06,11,09,,,,,,,2.53,1.39,2.11*0F

$GPGSV,3,1,12,01,08,140,08,03,34,087,21,04,67,082,15,06,63,287,35*77

$GPGSV,3,2,12,07,05,167,,09,64,199,30,11,28,307,24,17,17,212,25*7E

$GPGSV,3,3,12,19,30,233,28,21,05,272,,25,00,338,,28,00,018,*74

$GPGLL,5206.47718,N,00217.62623,W,141303.00,A,A*74

$GPRMC,141304.00,A,5206.48251,N,00217.62138,W,22.273,29.20,070725,,,A*76

$GPVTG,29.20,T,,M,22.273,N,41.249,K,A*08

$GPGGA,141304.00,5206.48251,N,00217.62138,W,1,06,1.39,44.8,M,48.3,M,,*76

$GPGSA,A,3,03,19,04,06,11,09,,,,,,,2.53,1.39,2.11*0F

$GPGSV,3,1,12,01,08,140,,03,34,087,22,04,67,082,16,06,63,287,35*7F

$GPGSV,3,2,12,07,05,167,,09,64,199,30,11,28,307,26,17,17,212,25*7C

$GPGSV,3,3,12,19,30,233,28,21,05,272,,25,00,338,,28,00,018,*74

$GPGLL,5206.48251,N,00217.62138,W,141304.00,A,A*79

$GPRMC,141305.00,A,5206.48810,N,00217.61590,W,23.501,31.22,070725,,,A*75

$GPVTG,31.22,T,,M,23.501,N,43.523,K,A*09

$GPGGA,141305.00,5206.48810,N,00217.61590,W,1,06,1.39,44.2,M,48.3,M,,*77

$GPGSA,A,3,03,19,04,06,11,09,,,,,,,2.53,1.39,2.11*0F

$GPGSV,3,1,12,01,08,140,,03,34,087,21,04,67,082,16,06,63,287,34*7D

$GPGSV,3,2,12,07,05,167,,09,64,199,30,11,28,307,25,17,17,212,25*7F

$GPGSV,3,3,12,19,30,233,28,21,05,272,,25,00,338,,28,00,018,*74

$GPGLL,5206.48810,N,00217.61590,W,141305.00,A,A*72

$GPRMC,141306.00,A,5206.49393,N,00217.61032,W,24.765,31.10,070725,,,A*7C

$GPVTG,31.10,T,,M,24.765,N,45.864,K,A*07

$GPGGA,141306.00,5206.49393,N,00217.61032,W,1,06,1.39,44.0,M,48.3,M,,*7A

$GPGSA,A,3,03,19,04,06,11,09,,,,,,,2.53,1.39,2.11*0F

$GPGSV,3,1,12,01,08,140,,03,34,087,21,04,67,082,18,06,63,287,35*72

$GPGSV,3,2,12,07,05,167,,09,64,199,30,11,28,307,24,17,17,212,25*7E

$GPGSV,3,3,12,19,30,233,29,21,05,272,,25,00,338,,28,00,018,*75

$GPGLL,5206.49393,N,00217.61032,W,141306.00,A,A*7D

$GPRMC,141307.00,A,5206.50006,N,00217.60454,W,25.811,30.35,070725,,,A*74

$GPVTG,30.35,T,,M,25.811,N,47.801,K,A*0D

$GPGGA,141307.00,5206.50006,N,00217.60454,W,1,06,1.39,44.0,M,48.3,M,,*79

$GPGSA,A,3,03,19,04,06,11,09,,,,,,,2.53,1.39,2.11*0F

$GPGSV,3,1,12,01,08,140,,03,34,087,21,04,67,082,20,06,63,287,36*7A

$GPGSV,3,2,12,07,05,167,,09,64,199,30,11,28,307,26,17,17,212,26*7F

$GPGSV,3,3,12,19,30,233,29,21,05,272,,25,00,338,,28,00,018,*75

$GPGLL,5206.50006,N,00217.60454,W,141307.00,A,A*7E

$GPRMC,141308.00,A,5206.50630,N,00217.59883,W,26.320,28.91,070725,,,A*79

$GPVTG,28.91,T,,M,26.320,N,48.745,K,A*00

$GPGGA,141308.00,5206.50630,N,00217.59883,W,1,06,1.39,43.9,M,48.3,M,,*77

$GPGSA,A,3,03,19,04,06,11,09,,,,,,,2.53,1.39,2.11*0F

$GPGSV,3,1,12,01,08,140,,03,34,087,20,04,67,082,21,06,63,287,35*79

$GPGSV,3,2,12,07,05,167,,09,64,199,30,11,28,307,28,17,17,212,25*72

$GPGSV,3,3,12,19,30,233,28,21,05,272,,25,00,338,,28,00,018,*74

$GPGLL,5206.50630,N,00217.59883,W,141308.00,A,A*7E

$GPRMC,141309.00,A,5206.51276,N,00217.59301,W,26.376,28.52,070725,,,A*72

$GPVTG,28.52,T,,M,26.376,N,48.848,K,A*0E

$GPGGA,141309.00,5206.51276,N,00217.59301,W,1,06,1.39,43.6,M,48.3,M,,*7F

$GPGSA,A,3,03,19,04,06,11,09,,,,,,,2.53,1.39,2.11*0F

$GPGSV,3,1,12,01,08,140,,03,34,087,21,04,67,082,20,06,63,287,35*79

$GPGSV,3,2,12,07,05,167,,09,64,199,29,11,28,307,29,17,17,212,25*7B

$GPGSV,3,3,12,19,30,233,27,21,05,272,,25,00,338,,28,00,018,*7B

$GPGLL,5206.51276,N,00217.59301,W,141309.00,A,A*79

$GPRMC,141310.00,A,5206.51901,N,00217.58703,W,26.205,30.93,070725,,,A*77

$GPVTG,30.93,T,,M,26.205,N,48.532,K,A*0F

$GPGGA,141310.00,5206.51901,N,00217.58703,W,1,06,1.39,43.3,M,48.3,M,,*7E

$GPGSA,A,3,03,19,04,06,11,09,,,,,,,2.53,1.39,2.11*0F

$GPGSV,3,1,12,01,08,140,,03,34,087,21,04,67,082,19,06,63,287,34*72

$GPGSV,3,2,12,07,05,167,,09,64,199,28,11,28,307,27,17,17,212,25*74

$GPGSV,3,3,12,19,30,233,27,21,05,272,,25,00,338,,28,00,018,*7B

$GPGLL,5206.51901,N,00217.58703,W,141310.00,A,A*7D

$GPRMC,141311.00,A,5206.52503,N,00217.58056,W,26.281,33.71,070725,,,A*7F

$GPVTG,33.71,T,,M,26.281,N,48.673,K,A*0A

$GPGGA,141311.00,5206.52503,N,00217.58056,W,1,06,1.39,43.3,M,48.3,M,,*75

$GPGSA,A,3,03,19,04,06,11,09,,,,,,,2.53,1.39,2.11*0F

$GPGSV,3,1,12,01,08,140,,03,34,087,24,04,67,082,19,06,63,287,33*70

$GPGSV,3,2,12,07,05,167,,09,64,199,28,11,28,307,24,17,17,212,24*76

$GPGSV,3,3,12,19,30,233,28,21,05,272,,25,00,338,,28,00,018,*74

$GPGLL,5206.52503,N,00217.58056,W,141311.00,A,A*76

$GPRMC,141312.00,A,5206.53077,N,00217.57330,W,26.029,39.62,070725,,,A*7F

$GPVTG,39.62,T,,M,26.029,N,48.206,K,A*04

$GPGGA,141312.00,5206.53077,N,00217.57330,W,1,06,1.39,43.0,M,48.3,M,,*7E

$GPGSA,A,3,03,19,04,06,11,09,,,,,,,2.53,1.39,2.11*0F

$GPGSV,3,1,12,01,08,140,,03,34,087,30,04,67,082,23,06,63,287,33*7C

$GPGSV,3,2,12,07,05,167,,09,64,199,28,11,28,307,30,17,17,212,23*74

$GPGSV,3,3,12,19,30,233,26,21,05,272,,25,00,338,,28,00,018,*7A

$GPGLL,5206.53077,N,00217.57330,W,141312.00,A,A*7E

$GPRMC,141313.00,A,5206.53601,N,00217.56455,W,26.578,47.04,070725,,,A*74

$GPVTG,47.04,T,,M,26.578,N,49.222,K,A*0B

$GPGGA,141313.00,5206.53601,N,00217.56455,W,1,06,1.39,42.7,M,48.3,M,,*7B

$GPGSA,A,3,03,19,04,06,11,09,,,,,,,2.53,1.39,2.11*0F

$GPGSV,3,1,12,01,08,140,,03,34,087,23,04,67,082,31,06,63,287,32*7C

$GPGSV,3,2,12,07,05,167,,09,64,199,29,11,28,307,21,17,17,212,25*73

$GPGSV,3,3,12,19,30,233,22,21,05,272,,25,00,338,,28,00,018,*7E

$GPGLL,5206.53601,N,00217.56455,W,141313.00,A,A*7D

$GPRMC,141314.00,A,5206.54072,N,00217.55503,W,26.795,51.87,070725,,,A*7A

$GPVTG,51.87,T,,M,26.795,N,49.624,K,A*04

$GPGGA,141314.00,5206.54072,N,00217.55503,W,1,06,1.39,42.6,M,48.3,M,,*79

$GPGSA,A,3,03,19,04,06,11,09,,,,,,,2.53,1.39,2.11*0F

$GPGSV,3,1,12,01,08,140,,03,34,087,22,04,67,082,31,06,63,287,29*77

$GPGSV,3,2,12,07,05,167,,09,64,199,29,11,28,307,22,17,17,212,22*77

$GPGSV,3,3,12,19,30,233,19,21,05,272,,25,00,338,,28,00,018,*76

$GPGLL,5206.54072,N,00217.55503,W,141314.00,A,A*7E

$GPRMC,141315.00,A,5206.54539,N,00217.54534,W,26.942,52.15,070725,,,A*78

$GPVTG,52.15,T,,M,26.942,N,49.897,K,A*0E

$GPGGA,141315.00,5206.54539,N,00217.54534,W,1,06,1.39,42.7,M,48.3,M,,*76

$GPGSA,A,3,03,19,04,06,11,09,,,,,,,2.53,1.39,2.11*0F

$GPGSV,3,1,12,01,08,140,,03,34,087,24,04,67,082,31,06,63,287,29*71

$GPGSV,3,2,12,07,05,167,,09,64,199,30,11,28,307,20,17,17,212,20*7F

$GPGSV,3,3,12,19,30,233,17,21,05,272,,25,00,338,,28,00,018,*78

$GPGLL,5206.54539,N,00217.54534,W,141315.00,A,A*70

$GPRMC,141316.00,A,5206.55000,N,00217.53547,W,27.107,52.70,070725,,,A*7D

$GPVTG,52.70,T,,M,27.107,N,50.202,K,A*0B

$GPGGA,141316.00,5206.55000,N,00217.53547,W,1,06,1.39,42.7,M,48.3,M,,*78

$GPGSA,A,3,03,19,04,06,11,09,,,,,,,2.53,1.39,2.11*0F

$GPGSV,3,1,12,01,08,140,,03,34,087,24,04,67,082,32,06,63,287,29*72

$GPGSV,3,2,12,07,05,167,,09,64,199,31,11,28,307,19,17,17,212,18*7F

$GPGSV,3,3,12,19,30,233,15,21,05,272,,25,00,338,,28,00,018,*7A

$GPGLL,5206.55000,N,00217.53547,W,141316.00,A,A*7E

$GPRMC,141317.00,A,5206.55485,N,00217.52558,W,27.431,51.45,070725,,,A*7F

$GPVTG,51.45,T,,M,27.431,N,50.802,K,A*04

$GPGGA,141317.00,5206.55485,N,00217.52558,W,1,06,1.39,42.3,M,48.3,M,,*7B

$GPGSA,A,3,03,19,04,06,11,09,,,,,,,2.53,1.39,2.11*0F

$GPGSV,3,1,12,01,08,140,,03,34,087,25,04,67,082,31,06,63,287,28*71

$GPGSV,3,2,12,07,05,167,,09,64,199,31,11,28,307,18,17,17,212,15*73

$GPGSV,3,3,12,19,30,233,15,21,05,272,,25,00,338,,28,00,018,*7A

$GPGLL,5206.55485,N,00217.52558,W,141317.00,A,A*79

$GPRMC,141318.00,A,5206.55966,N,00217.51577,W,27.408,50.80,070725,,,A*7C

$GPVTG,50.80,T,,M,27.408,N,50.760,K,A*0D

$GPGGA,141318.00,5206.55966,N,00217.51577,W,1,06,1.39,42.2,M,48.3,M,,*7B

$GPGSA,A,3,03,19,04,06,11,09,,,,,,,2.53,1.39,2.11*0F

$GPGSV,3,1,12,01,08,140,,03,34,087,25,04,67,082,31,06,63,287,27*7E

$GPGSV,3,2,12,07,05,167,,09,64,199,29,11,28,307,16,17,17,212,11*70

$GPGSV,3,3,12,19,30,233,14,21,05,272,,25,00,338,,28,00,018,*7B

$GPGLL,5206.55966,N,00217.51577,W,141318.00,A,A*78

$GPRMC,141319.00,A,5206.56477,N,00217.50660,W,27.166,47.26,070725,,,A*70

$GPVTG,47.26,T,,M,27.166,N,50.311,K,A*08

$GPGGA,141319.00,5206.56477,N,00217.50660,W,1,06,1.39,42.6,M,48.3,M,,*74

$GPGSA,A,3,03,19,04,06,11,09,,,,,,,2.53,1.39,2.11*0F

$GPGSV,3,1,12,01,08,140,,03,33,087,27,04,67,082,30,06,63,287,28*75

$GPGSV,3,2,12,07,05,167,,09,64,199,28,11,28,307,16,17,17,212,*71

$GPGSV,3,3,12,19,30,233,16,21,05,272,,25,00,338,,28,00,018,*79

$GPGLL,5206.56477,N,00217.50660,W,141319.00,A,A*73

$GPRMC,141320.00,A,5206.57010,N,00217.49809,W,26.565,43.67,070725,,,A*70

$GPVTG,43.67,T,,M,26.565,N,49.197,K,A*0B

$GPGGA,141320.00,5206.57010,N,00217.49809,W,1,06,1.39,43.0,M,48.3,M,,*74

$GPGSA,A,3,03,19,04,06,11,09,,,,,,,2.53,1.39,2.11*0F

$GPGSV,3,1,12,01,08,140,,03,33,087,27,04,67,081,18,06,63,287,27*73

$GPGSV,3,2,12,07,05,167,,09,64,199,27,11,28,307,17,17,17,212,*7F

$GPGSV,3,3,12,19,30,233,15,21,05,272,,25,00,338,,28,00,018,*7A

$GPGLL,5206.57010,N,00217.49809,W,141320.00,A,A*74

$GPRMC,141321.00,A,5206.57490,N,00217.49027,W,24.278,44.69,070725,,,A*79

$GPVTG,44.69,T,,M,24.278,N,44.963,K,A*05

$GPGGA,141321.00,5206.57490,N,00217.49027,W,1,06,1.39,43.0,M,48.3,M,,*7D

$GPGSA,A,3,03,19,04,06,11,09,,,,,,,2.53,1.39,2.11*0F

$GPGSV,3,1,12,01,08,140,,03,33,087,27,04,67,081,18,06,63,287,24*70

$GPGSV,3,2,12,07,05,167,,09,64,199,25,11,28,307,17,17,17,212,*7D

$GPGSV,3,3,12,19,30,233,16,21,05,272,,25,00,338,,28,00,018,*79

$GPGLL,5206.57490,N,00217.49027,W,141321.00,A,A*7D

$GPRMC,141322.00,A,5206.58099,N,00217.48276,W,26.428,39.70,070725,,,A*7C

$GPVTG,39.70,T,,M,26.428,N,48.945,K,A*0E

$GPGGA,141322.00,5206.58099,N,00217.48276,W,1,06,1.39,43.1,M,48.3,M,,*7A

$GPGSA,A,3,03,19,04,06,11,09,,,,,,,2.53,1.39,2.11*0F

$GPGSV,3,1,12,01,08,140,,03,33,087,24,04,67,081,18,06,63,287,24*73

$GPGSV,3,2,12,07,05,167,,09,64,199,24,11,28,307,18,17,17,212,*73

$GPGSV,3,3,12,19,30,233,16,21,05,272,,25,00,338,,28,00,018,*79

$GPGLL,5206.58099,N,00217.48276,W,141322.00,A,A*7B

$GPRMC,141323.00,A,5206.58755,N,00217.47476,W,28.482,38.94,070725,,,A*76

$GPVTG,38.94,T,,M,28.482,N,52.748,K,A*03

$GPGGA,141323.00,5206.58755,N,00217.47476,W,1,06,1.39,43.5,M,48.3,M,,*71

$GPGSA,A,3,03,19,04,06,11,09,,,,,,,2.53,1.39,2.11*0F

$GPGSV,3,1,12,01,08,140,,03,33,087,20,04,67,081,21,06,63,287,32*7A

$GPGSV,3,2,12,07,05,166,,09,64,199,26,11,28,307,19,17,17,212,*71

$GPGSV,3,3,12,19,30,233,15,21,05,272,,25,00,338,,28,00,018,*7A

$GPGLL,5206.58755,N,00217.47476,W,141323.00,A,A*74

$GPRMC,141324.00,A,5206.59398,N,00217.46723,W,28.207,36.55,070725,,,A*7F

$GPVTG,36.55,T,,M,28.207,N,52.240,K,A*06

$GPGGA,141324.00,5206.59398,N,00217.46723,W,1,06,1.39,43.6,M,48.3,M,,*73

$GPGSA,A,3,03,19,04,06,11,09,,,,,,,2.52,1.39,2.11*0E

$GPGSV,3,1,12,01,08,140,,03,33,087,17,04,67,081,21,06,63,287,28*75

$GPGSV,3,2,12,07,05,166,,09,64,199,27,11,28,307,18,17,17,212,*71

$GPGSV,3,3,12,19,30,233,15,21,05,272,,25,00,338,,28,00,018,*7A

$GPGLL,5206.59398,N,00217.46723,W,141324.00,A,A*75

$GPRMC,141325.00,A,5206.60056,N,00217.45949,W,28.921,36.16,070725,,,A*7C

$GPVTG,36.16,T,,M,28.921,N,53.561,K,A*0B

$GPGGA,141325.00,5206.60056,N,00217.45949,W,1,06,1.39,43.7,M,48.3,M,,*79

$GPGSA,A,3,03,19,04,06,11,09,,,,,,,2.52,1.39,2.11*0E

$GPGSV,3,1,12,01,08,140,,03,33,087,27,04,67,081,20,06,63,287,25*7A

$GPGSV,3,2,12,07,05,166,,09,64,199,25,11,28,307,19,17,17,212,*72

$GPGSV,3,3,12,19,30,233,16,21,05,272,,25,00,338,,28,00,018,*79

$GPGLL,5206.60056,N,00217.45949,W,141325.00,A,A*7E

$GPRMC,141326.00,A,5206.60637,N,00217.45102,W,28.640,40.51,070725,,,A*73

$GPVTG,40.51,T,,M,28.640,N,53.041,K,A*06

$GPGGA,141326.00,5206.60637,N,00217.45102,W,1,06,1.39,43.1,M,48.3,M,,*7A

$GPGSA,A,3,03,19,04,06,11,09,,,,,,,2.52,1.39,2.10*0F

$GPGSV,3,1,12,01,08,140,,03,33,087,33,04,67,081,22,06,63,287,31*78

$GPGSV,3,2,12,07,05,166,,09,64,199,26,11,28,307,22,17,17,212,*79

$GPGSV,3,3,12,19,30,233,16,21,05,272,,25,00,338,,28,00,018,*79

