$GPGLL,5206.49290,N,00217.78695,W,203106.00,A,A*7B
$GPRMC,203107.00,A,5206.49242,N,00217.78696,W,1.463,,070725,,,A*68
$GPVTG,,T,,M,1.463,N,2.710,K,A*27
$GPGGA,203107.00,5206.49242,N,00217.78696,W,1,07,2.13,55.3,M,48.3,M,,*78
$GPGSA,A,3,13,15,22,14,30,23,24,,,,,,3.08,2.13,2.22*0C
$GPGSV,3,1,12,05,23,192,,10,05,332,,13,65,114,26,14,47,071,18*78
$GPGSV,3,2,12,15,75,265,25,17,12,102,19,19,02,125,,21,00,169,*74
$GPGSV,3,3,12,22,55,096,26,23,35,304,16,24,37,257,21,30,19,073,13*7A
$GPGLL,5206.49242,N,00217.78696,W,203107.00,A,A*76
$GPRMC,203108.00,A,5206.49233,N,00217.78714,W,1.341,,070725,,,A*6D
$GPVTG,,T,,M,1.341,N,2.484,K,A*2E
$GPGGA,203108.00,5206.49233,N,00217.78714,W,1,07,2.13,55.6,M,48.3,M,,*7F
$GPGSA,A,3,13,15,22,14,30,23,24,,,,,,3.08,2.13,2.22*0C
$GPGSV,3,1,12,05,23,192,,10,05,332,,13,65,114,26,14,47,071,18*78
$GPGSV,3,2,12,15,75,265,25,17,12,101,20,19,02,125,,21,00,169,*7D
$GPGSV,3,3,12,22,55,096,26,23,35,304,16,24,37,257,21,30,19,073,11*78
$GPGLL,5206.49233,N,00217.78714,W,203108.00,A,A*74
$GPRMC,203109.00,A,5206.49177,N,00217.78712,W,1.534,,070725,,,A*6D
$GPVTG,,T,,M,1.534,N,2.841,K,A*2F
$GPGGA,203109.00,5206.49177,N,00217.78712,W,1,07,2.13,56.3,M,48.3,M,,*7D
$GPGSA,A,3,13,15,22,14,30,23,24,,,,,,3.08,2.13,2.22*0C
$GPGSV,3,1,12,05,23,192,,10,05,332,,13,65,114,25,14,47,071,18*7B
$GPGSV,3,2,12,15,75,265,23,17,12,101,20,19,02,125,,21,00,169,*7B
$GPGSV,3,3,12,22,55,096,25,23,35,304,15,24,37,257,20,30,19,073,11*79
$GPGLL,5206.49177,N,00217.78712,W,203109.00,A,A*70
$GPRMC,203110.00,A,5206.49099,N,00217.78708,W,1.734,,070725,,,A*6D
$GPVTG,,T,,M,1.734,N,3.211,K,A*23
$GPGGA,203110.00,5206.49099,N,00217.78708,W,1,07,2.13,56.3,M,48.3,M,,*7F
$GPGSA,A,3,13,15,22,14,30,23,24,,,,,,3.08,2.13,2.22*0C
$GPGSV,3,1,12,05,23,192,,10,05,332,,13,65,114,26,14,47,071,17*77
$GPGSV,3,2,12,15,75,265,22,17,12,101,19,19,02,125,,21,00,169,*70
$GPGSV,3,3,12,22,55,096,26,23,35,304,16,24,37,257,20,30,19,073,11*79
$GPGLL,5206.49099,N,00217.78708,W,203110.00,A,A*72
$GPRMC,203111.00,A,5206.49125,N,00217.78705,W,1.246,,070725,,,A*67
$GPVTG,,T,,M,1.246,N,2.308,K,A*2B
$GPGGA,203111.00,5206.49125,N,00217.78705,W,1,07,2.13,56.6,M,48.3,M,,*70
$GPGSA,A,3,13,15,22,14,30,23,24,,,,,,3.08,2.13,2.22*0C
$GPGSV,3,1,12,05,23,192,,10,05,332,,13,65,114,26,14,47,071,16*76
$GPGSV,3,2,12,15,75,265,22,17,12,101,18,19,02,125,,21,00,169,*71
$GPGSV,3,3,12,22,55,096,26,23,35,304,17,24,37,257,20,30,19,073,11*78
$GPGLL,5206.49125,N,00217.78705,W,203111.00,A,A*78
$GPRMC,203112.00,A,5206.49091,N,00217.78675,W,1.259,,070725,,,A*62
$GPVTG,,T,,M,1.259,N,2.332,K,A*2C
$GPGGA,203112.00,5206.49091,N,00217.78675,W,1,07,2.13,56.8,M,48.3,M,,*75
$GPGSA,A,3,13,15,22,14,30,23,24,,,,,,3.08,2.13,2.22*0C
$GPGSV,3,1,12,05,23,192,,10,05,332,,13,65,114,26,14,47,071,14*74
$GPGSV,3,2,12,15,75,265,21,17,12,101,18,19,02,125,,21,00,169,*72
$GPGSV,3,3,12,22,55,096,26,23,35,304,16,24,37,257,21,30,19,073,11*78
$GPGLL,5206.49091,N,00217.78675,W,203112.00,A,A*73
$GPRMC,203113.00,A,5206.49052,N,00217.78727,W,1.331,,070725,,,A*65
$GPVTG,,T,,M,1.331,N,2.465,K,A*26
$GPGGA,203113.00,5206.49052,N,00217.78727,W,1,07,2.13,56.9,M,48.3,M,,*7C
$GPGSA,A,3,13,15,22,14,30,23,24,,,,,,3.08,2.13,2.22*0C
$GPGSV,3,1,12,05,23,192,,10,05,332,,13,65,114,25,14,47,071,12*71
$GPGSV,3,2,12,15,75,265,21,17,12,101,18,19,02,125,,21,00,169,*72
$GPGSV,3,3,12,22,55,096,25,23,36,304,16,24,37,257,20,30,19,073,11*79
$GPGLL,5206.49052,N,00217.78727,W,203113.00,A,A*7B
$GPRMC,203114.00,A,5206.49046,N,00217.78702,W,1.025,,070725,,,A*66
$GPVTG,,T,,M,1.025,N,1.898,K,A*2D
$GPGGA,203114.00,5206.49046,N,00217.78702,W,1,06,2.31,57.0,M,48.3,M,,*70
$GPGSA,A,3,13,15,22,30,23,24,,,,,,,3.29,2.31,2.34*0D
$GPGSV,3,1,12,05,23,192,,10,05,332,,13,65,114,25,14,47,071,18*7B
$GPGSV,3,2,12,15,75,265,23,17,12,101,19,19,02,125,,21,00,169,*71
$GPGSV,3,3,12,22,55,096,26,23,36,304,16,24,37,258,20,30,19,073,09*7C
$GPGLL,5206.49046,N,00217.78702,W,203114.00,A,A*7E
$GPRMC,203115.00,A,5206.49087,N,00217.78710,W,0.561,,070725,,,A*6D
$GPVTG,,T,,M,0.561,N,1.039,K,A*2A
$GPGGA,203115.00,5206.49087,N,00217.78710,W,1,06,2.31,57.1,M,48.3,M,,*7E
$GPGSA,A,3,13,15,22,30,23,24,,,,,,,3.29,2.31,2.34*0D
$GPGSV,3,1,12,05,23,192,,10,05,332,,13,65,114,26,14,47,071,17*77
$GPGSV,3,2,12,15,75,265,23,17,12,101,19,19,02,125,,21,00,169,*71
$GPGSV,3,3,12,22,55,096,26,23,36,304,18,24,37,258,21,30,19,073,09*73
$GPGLL,5206.49087,N,00217.78710,W,203115.00,A,A*71
$GPRMC,203116.00,A,5206.49120,N,00217.78703,W,0.301,,070725,,,A*60
$GPVTG,,T,,M,0.301,N,0.558,K,A*29
$GPGGA,203116.00,5206.49120,N,00217.78703,W,1,06,2.31,57.3,M,48.3,M,,*71
$GPGSA,A,3,13,15,22,30,23,24,,,,,,,3.29,2.31,2.34*0D
$GPGSV,3,1,12,05,23,192,,10,05,332,,13,65,114,26,14,47,071,14*74
$GPGSV,3,2,12,15,75,265,23,17,12,101,19,19,02,125,,21,00,169,*71
$GPGSV,3,3,12,22,55,096,27,23,36,304,17,24,37,258,21,30,19,073,09*7D
$GPGLL,5206.49120,N,00217.78703,W,203116.00,A,A*7C
$GPRMC,203117.00,A,5206.49127,N,00217.78752,W,0.379,,070725,,,A*6D
$GPVTG,,T,,M,0.379,N,0.703,K,A*2A
$GPGGA,203117.00,5206.49127,N,00217.78752,W,1,06,2.32,57.4,M,48.3,M,,*77
$GPGSA,A,3,13,15,22,30,23,24,,,,,,,3.29,2.32,2.34*0E
$GPGSV,3,1,12,05,23,192,,10,05,332,,13,65,114,26,14,47,071,14*74
$GPGSV,3,2,12,15,75,265,22,17,12,101,18,19,02,125,,21,00,169,*71
$GPGSV,3,3,12,22,55,096,26,23,36,304,17,24,37,258,21,30,19,073,09*7C
$GPGLL,5206.49127,N,00217.78752,W,203117.00,A,A*7E
$GPRMC,203118.00,A,5206.49202,N,00217.78747,W,0.192,,070725,,,A*65
$GPVTG,,T,,M,0.192,N,0.356,K,A*29
$GPGGA,203118.00,5206.49202,N,00217.78747,W,1,07,2.14,57.4,M,48.3,M,,*7D
$GPGSA,A,3,13,15,22,14,30,23,24,,,,,,3.08,2.14,2.22*0B
$GPGSV,3,1,12,05,23,192,,10,05,332,,13,65,114,27,14,47,071,14*75
$GPGSV,3,2,12,15,75,265,23,17,12,101,18,19,02,125,,21,00,169,*70
$GPGSV,3,3,12,22,55,096,27,23,36,304,18,24,37,258,22,30,19,073,09*71
$GPGLL,5206.49202,N,00217.78747,W,203118.00,A,A*71
$GPRMC,203119.00,A,5206.49303,N,00217.78764,W,0.718,,070725,,,A*61
$GPVTG,,T,,M,0.718,N,1.329,K,A*24
$GPGGA,203119.00,5206.49303,N,00217.78764,W,1,07,2.14,57.8,M,48.3,M,,*71
$GPGSA,A,3,13,15,22,14,30,23,24,,,,,,3.08,2.14,2.22*0B
$GPGSV,3,1,12,05,23,192,,10,05,332,,13,65,114,27,14,47,071,14*75
$GPGSV,3,2,12,15,75,265,23,17,12,101,19,19,02,125,,21,00,169,*71
$GPGSV,3,3,12,22,55,096,27,23,36,304,18,24,37,258,21,30,19,073,09*72
$GPGLL,5206.49303,N,00217.78764,W,203119.00,A,A*71
$GPRMC,203120.00,A,5206.49270,N,00217.78748,W,0.416,,070725,,,A*6D
$GPVTG,,T,,M,0.416,N,0.770,K,A*20
$GPGGA,203120.00,5206.49270,N,00217.78748,W,1,07,2.14,57.7,M,48.3,M,,*7F
$GPGSA,A,3,13,15,22,14,30,23,24,,,,,,3.08,2.14,2.22*0B
$GPGSV,3,1,12,05,23,192,,10,05,332,,13,65,114,27,14,47,071,15*74
$GPGSV,3,2,12,15,75,265,23,17,12,101,19,19,02,125,,21,00,169,*71
$GPGSV,3,3,12,22,55,096,27,23,36,304,18,24,37,258,22,30,18,073,10*78
$GPGLL,5206.49270,N,00217.78748,W,203120.00,A,A*70
$GPRMC,203121.00,A,5206.49276,N,00217.78803,W,0.664,,070725,,,A*6D
$GPVTG,,T,,M,0.664,N,1.229,K,A*2F
$GPGGA,203121.00,5206.49276,N,00217.78803,W,1,07,2.14,57.8,M,48.3,M,,*77
$GPGSA,A,3,13,15,22,14,30,23,24,,,,,,3.08,2.14,2.22*0B
$GPGSV,3,1,12,05,23,192,,10,05,332,,13,65,114,27,14,47,071,14*75
$GPGSV,3,2,12,15,75,265,23,17,12,101,19,19,02,125,,21,00,169,*71
$GPGSV,3,3,12,22,55,096,27,23,36,304,18,24,37,258,22,30,18,073,10*78
$GPGLL,5206.49276,N,00217.78803,W,203121.00,A,A*77
$GPRMC,203122.00,A,5206.49211,N,00217.78783,W,0.163,,070725,,,A*68
$GPVTG,,T,,M,0.163,N,0.301,K,A*25
$GPGGA,203122.00,5206.49211,N,00217.78783,W,1,07,2.14,57.9,M,48.3,M,,*73
$GPGSA,A,3,13,15,22,14,30,23,24,,,,,,3.08,2.14,2.22*0B
$GPGSV,3,1,12,05,23,192,,10,05,332,,13,65,114,26,14,47,071,14*74
$GPGSV,3,2,12,15,75,265,23,17,12,101,19,19,02,125,,21,00,169,*71
$GPGSV,3,3,12,22,55,096,27,23,36,304,19,24,37,258,22,30,18,073,10*79
$GPGLL,5206.49211,N,00217.78783,W,203122.00,A,A*72
$GPRMC,203123.00,A,5206.49220,N,00217.78759,W,0.202,,070725,,,A*68
$GPVTG,,T,,M,0.202,N,0.375,K,A*22
$GPGGA,203123.00,5206.49220,N,00217.78759,W,1,07,2.14,58.2,M,48.3,M,,*73
$GPGSA,A,3,13,15,22,14,30,23,24,,,,,,3.08,2.14,2.22*0B
$GPGSV,3,1,12,05,23,192,,10,05,332,,13,65,114,26,14,47,071,14*74
$GPGSV,3,2,12,15,75,265,23,17,12,101,20,19,02,125,,21,00,169,*7B
$GPGSV,3,3,12,22,55,096,27,23,36,304,18,24,37,258,22,30,18,073,10*78
$GPGLL,5206.49220,N,00217.78759,W,203123.00,A,A*76
$GPRMC,203124.00,A,5206.49240,N,00217.78777,W,0.061,,070725,,,A*62
$GPVTG,,T,,M,0.061,N,0.113,K,A*27
$GPGGA,203124.00,5206.49240,N,00217.78777,W,1,07,2.14,58.4,M,48.3,M,,*78
$GPGSA,A,3,13,15,22,14,30,23,24,,,,,,3.08,2.14,2.22*0B
$GPGSV,3,1,12,05,23,192,,10,05,332,,13,65,114,26,14,47,071,15*75
$GPGSV,3,2,12,15,75,265,23,17,12,101,20,19,02,125,,21,00,169,*7B
$GPGSV,3,3,12,22,55,096,27,23,36,304,18,24,37,258,22,30,18,073,10*78
$GPGLL,5206.49240,N,00217.78777,W,203124.00,A,A*7B
$GPRMC,203125.00,A,5206.49342,N,00217.78781,W,0.586,,070725,,,A*65
$GPVTG,,T,,M,0.586,N,1.085,K,A*24
$GPGGA,203125.00,5206.49342,N,00217.78781,W,1,07,2.14,58.8,M,48.3,M,,*7F
$GPGSA,A,3,13,15,22,14,30,23,24,,,,,,3.08,2.14,2.22*0B
$GPGSV,3,1,12,05,23,192,,10,05,332,,13,65,114,26,14,47,071,14*74
$GPGSV,3,2,12,15,75,265,23,17,12,101,19,19,02,125,,21,00,169,*71
$GPGSV,3,3,12,22,55,096,27,23,36,304,18,24,37,258,22,30,18,073,10*78
$GPGLL,5206.49342,N,00217.78781,W,203125.00,A,A*70
$GPRMC,203126.00,A,5206.49388,N,00217.78762,W,0.629,,070725,,,A*6B
$GPVTG,,T,,M,0.629,N,1.165,K,A*2D
$GPGGA,203126.00,5206.49388,N,00217.78762,W,1,07,2.14,59.2,M,48.3,M,,*7C
$GPGSA,A,3,13,15,22,14,30,23,24,,,,,,3.08,2.14,2.22*0B
$GPGSV,3,1,12,05,23,192,,10,05,332,,13,65,114,26,14,47,071,13*73
$GPGSV,3,2,12,15,75,265,23,17,12,101,19,19,02,125,,21,00,169,*71
$GPGSV,3,3,12,22,55,096,27,23,36,304,18,24,37,258,22,30,18,073,09*70
$GPGLL,5206.49388,N,00217.78762,W,203126.00,A,A*78
$GPRMC,203127.00,A,5206.49500,N,00217.78793,W,1.152,,070725,,,A*68
$GPVTG,,T,,M,1.152,N,2.134,K,A*20
$GPGGA,203127.00,5206.49500,N,00217.78793,W,1,07,2.14,59.5,M,48.3,M,,*72
$GPGSA,A,3,13,15,22,14,30,23,24,,,,,,3.08,2.14,2.22*0B
$GPGSV,3,1,12,05,23,192,,10,05,332,,13,65,114,25,14,47,071,13*70
$GPGSV,3,2,12,15,75,265,22,17,12,101,18,19,02,125,,21,00,169,*71
$GPGSV,3,3,12,22,55,096,26,23,36,304,16,24,37,258,20,30,18,073,09*7D
$GPGLL,5206.49500,N,00217.78793,W,203127.00,A,A*71
$GPRMC,203128.00,A,5206.49574,N,00217.78826,W,1.424,,070725,,,A*61
$GPVTG,,T,,M,1.424,N,2.638,K,A*2F
$GPGGA,203128.00,5206.49574,N,00217.78826,W,1,07,2.14,59.5,M,48.3,M,,*7F
$GPGSA,A,3,13,15,22,14,30,23,24,,,,,,3.08,2.14,2.22*0B
$GPGSV,3,1,12,05,23,192,,10,05,332,,13,65,114,24,14,47,071,13*71
$GPGSV,3,2,12,15,75,265,22,17,12,101,19,19,02,125,,21,00,169,*70
$GPGSV,3,3,12,22,55,096,26,23,36,304,15,24,37,258,20,30,18,073,09*7E
$GPGLL,5206.49574,N,00217.78826,W,203128.00,A,A*7C
$GPRMC,203129.00,A,5206.49581,N,00217.78841,W,1.123,,070725,,,A*69
$GPVTG,,T,,M,1.123,N,2.080,K,A*28
$GPGGA,203129.00,5206.49581,N,00217.78841,W,1,07,2.14,59.4,M,48.3,M,,*74
$GPGSA,A,3,13,15,22,14,30,23,24,,,,,,3.08,2.14,2.22*0B
$GPGSV,3,1,12,05,23,192,,10,05,332,,13,65,114,25,14,47,071,13*70
$GPGSV,3,2,12,15,75,265,23,17,12,101,20,19,02,125,,21,00,169,*7B
$GPGSV,3,3,12,22,55,096,26,23,36,304,15,24,37,258,21,30,18,073,09*7F
$GPGLL,5206.49581,N,00217.78841,W,203129.00,A,A*76
